[
    {
      "Name" : "Chitipa District Hospital",
      "Type" : "District Hospital",
      "Region" : "North",
      "District" : "Chitipa",
      "Latitude" : -9.70159,
      "Longitude" : 33.2659
    },
    {
      "Name" : "Ifumbo Health Centre",
      "Type" : "Health Centre",
      "Region" : "North",
      "District" : "Chitipa",
      "Latitude" : -9.60436,
      "Longitude" : 33.40495
    },
    {
      "Name" : "Kameme Health Centre",
      "Type" : "Health Centre",
      "Region" : "North",
      "District" : "Chitipa",
      "Latitude" : -9.54425,
      "Longitude" : 33.13134
    },
    {
      "Name" : "Kapenda Health Centre",
      "Type" : "Health Centre",
      "Region" : "North",
      "District" : "Chitipa",
      "Latitude" : -9.49394,
      "Longitude" : 33.24911
    },
    {
      "Name" : "Misuku Health Centre",
      "Type" : "Health Centre",
      "Region" : "North",
      "District" : "Chitipa",
      "Latitude" : -9.677,
      "Longitude" : 33.52076
    },
    {
      "Name" : "Nthalire Health Centre",
      "Type" : "Health Centre",
      "Region" : "North",
      "District" : "Chitipa",
      "Latitude" : -10.34894,
      "Longitude" : 33.64394
    },
    {
      "Name" : "Wenya Health Centre",
      "Type" : "Health Centre",
      "Region" : "North",
      "District" : "Chitipa",
      "Latitude" : -10.11286,
      "Longitude" : 33.56344
    },
    {
      "Name" : "Kaseye Mission Hospital",
      "Type" : "Rural/Community Hospital",
      "Region" : "North",
      "District" : "Chitipa",
      "Latitude" : -9.66644,
      "Longitude" : 33.37361
    },
    {
      "Name" : "Chambo Health Centre",
      "Type" : "Health Centre",
      "Region" : "North",
      "District" : "Chitipa",
      "Latitude" : -9.94361,
      "Longitude" : 33.395
    },
    {
      "Name" : "Msumbe Dispensary",
      "Type" : "Dispensary",
      "Region" : "North",
      "District" : "Chitipa",
      "Latitude" : -9.75123,
      "Longitude" : 33.67563
    },
    {
      "Name" : "Mpale Private Clinic",
      "Type" : "Clinic",
      "Region" : "North",
      "District" : "Chitipa",
      "Latitude" : -10.1869,
      "Longitude" : 33.54168
    },
    {
      "Name" : "Banja La Mtsogolo Clinic",
      "Type" : "Clinic",
      "Region" : "North",
      "District" : "Chitipa",
      "Latitude" : -9.70176,
      "Longitude" : 33.27335
    },
    {
      "Name" : "Karonga District Hospital",
      "Type" : "District Hospital",
      "Region" : "North",
      "District" : "Karonga",
      "Latitude" : -9.95545,
      "Longitude" : 33.91113
    },
    {
      "Name" : "Chilumba Rural Hospital",
      "Type" : "Rural/Community Hospital",
      "Region" : "North",
      "District" : "Karonga",
      "Latitude" : -10.43199,
      "Longitude" : 34.25193
    },
    {
      "Name" : "Kaporo Rural Hospital",
      "Type" : "Rural/Community Hospital",
      "Region" : "North",
      "District" : "Karonga",
      "Latitude" : -9.76756,
      "Longitude" : 33.87466
    },
    {
      "Name" : "Hara Health Centre",
      "Type" : "Dispensary",
      "Region" : "North",
      "District" : "Karonga",
      "Latitude" : -10.48876,
      "Longitude" : 34.16939
    },
    {
      "Name" : "Iponga Health Centre",
      "Type" : "Health Centre",
      "Region" : "North",
      "District" : "Karonga",
      "Latitude" : -9.64605,
      "Longitude" : 33.81253
    },
    {
      "Name" : "Kasoba Health Centre",
      "Type" : "Health Centre",
      "Region" : "North",
      "District" : "Karonga",
      "Latitude" : -9.87355,
      "Longitude" : 33.862
    },
    {
      "Name" : "Lupembe Health Centre",
      "Type" : "Health Centre",
      "Region" : "North",
      "District" : "Karonga",
      "Latitude" : -10.06628,
      "Longitude" : 33.98778
    },
    {
      "Name" : "Lwezga Health Centre",
      "Type" : "Health Centre",
      "Region" : "North",
      "District" : "Karonga",
      "Latitude" : -10.56692,
      "Longitude" : 34.17943
    },
    {
      "Name" : "Mlare Health Centre",
      "Type" : "Health Centre",
      "Region" : "North",
      "District" : "Karonga",
      "Latitude" : -10.173,
      "Longitude" : 34.03591
    },
    {
      "Name" : "Mpata Health Centre",
      "Type" : "Health Centre",
      "Region" : "North",
      "District" : "Karonga",
      "Latitude" : -9.96062,
      "Longitude" : 33.81525
    },
    {
      "Name" : "Ngana Health Centre",
      "Type" : "Health Centre",
      "Region" : "North",
      "District" : "Karonga",
      "Latitude" : -9.62021,
      "Longitude" : 33.69891
    },
    {
      "Name" : "Nyungwe Health Centre",
      "Type" : "Health Centre",
      "Region" : "North",
      "District" : "Karonga",
      "Latitude" : -10.28546,
      "Longitude" : 34.10851
    },
    {
      "Name" : "Wiliro Health Centre",
      "Type" : "Health Centre",
      "Region" : "North",
      "District" : "Karonga",
      "Latitude" : -9.89312,
      "Longitude" : 33.61404
    },
    {
      "Name" : "Fulirwa Health Centre",
      "Type" : "Health Centre",
      "Region" : "North",
      "District" : "Karonga",
      "Latitude" : -10.44772,
      "Longitude" : 34.11211
    },
    {
      "Name" : "Atupele Community Hospital",
      "Type" : "Rural/Community Hospital",
      "Region" : "North",
      "District" : "Karonga",
      "Latitude" : -9.73682,
      "Longitude" : 33.83744
    },
    {
      "Name" : "Sangiro Health centre",
      "Type" : "Health Centre",
      "Region" : "North",
      "District" : "Karonga",
      "Latitude" : -10.51609,
      "Longitude" : 34.21346
    },
    {
      "Name" : "St. Anne's Health Centre",
      "Type" : "Health Centre",
      "Region" : "North",
      "District" : "Karonga",
      "Latitude" : -10.41184,
      "Longitude" : 34.21188
    },
    {
      "Name" : "Chiza Private Clinic, Dube, Wy",
      "Type" : "Clinic",
      "Region" : "North",
      "District" : "Karonga",
      "Latitude" : -10.45534,
      "Longitude" : 34.20951
    },
    {
      "Name" : "Kwambukwa Private Clinic, Mbuk",
      "Type" : "Clinic",
      "Region" : "North",
      "District" : "Karonga",
      "Latitude" : -9.94049,
      "Longitude" : 33.92423
    },
    {
      "Name" : "Maneno Private Clinic, Mhone,",
      "Type" : "Clinic",
      "Region" : "North",
      "District" : "Karonga",
      "Latitude" : -9.94014,
      "Longitude" : 33.92436
    },
    {
      "Name" : "Care Private Clinic, Mphenzi,",
      "Type" : "Clinic",
      "Region" : "North",
      "District" : "Karonga",
      "Latitude" : -9.93942,
      "Longitude" : 33.922
    },
    {
      "Name" : "Timunyazge Clinic",
      "Type" : "Clinic",
      "Region" : "North",
      "District" : "Karonga",
      "Latitude" : -10.21191,
      "Longitude" : 34.08743
    },
    {
      "Name" : "Karonga BLM",
      "Type" : "Clinic",
      "Region" : "North",
      "District" : "Karonga",
      "Latitude" : -9.94027,
      "Longitude" : 33.92436
    },
    {
      "Name" : "Nkhata Bay District Hospital",
      "Type" : "District Hospital",
      "Region" : "North",
      "District" : "Nkhata Bay",
      "Latitude" : -11.60159,
      "Longitude" : 34.29872
    },
    {
      "Name" : "Chintcheche Rural Hospital",
      "Type" : "Rural/Community Hospital",
      "Region" : "North",
      "District" : "Nkhata Bay",
      "Latitude" : -11.82719,
      "Longitude" : 34.16836
    },
    {
      "Name" : "Bula Health Centre",
      "Type" : "Health Centre",
      "Region" : "North",
      "District" : "Nkhata Bay",
      "Latitude" : -11.22268,
      "Longitude" : 34.12324
    },
    {
      "Name" : "Chikwina Health Centre",
      "Type" : "Health Centre",
      "Region" : "North",
      "District" : "Nkhata Bay",
      "Latitude" : -11.39694,
      "Longitude" : 34.163
    },
    {
      "Name" : "Chisala Health Centre",
      "Type" : "Health Centre",
      "Region" : "North",
      "District" : "Nkhata Bay",
      "Latitude" : -11.57458,
      "Longitude" : 34.12201
    },
    {
      "Name" : "Chitheka Health Centre",
      "Type" : "Health Centre",
      "Region" : "North",
      "District" : "Nkhata Bay",
      "Latitude" : -11.70191,
      "Longitude" : 33.95147
    },
    {
      "Name" : "Kachere Health Centre",
      "Type" : "Health Centre",
      "Region" : "North",
      "District" : "Nkhata Bay",
      "Latitude" : -12.00327,
      "Longitude" : 34.04961
    },
    {
      "Name" : "Kande Health Centre",
      "Type" : "Health Centre",
      "Region" : "North",
      "District" : "Nkhata Bay",
      "Latitude" : -11.93641,
      "Longitude" : 34.10944
    },
    {
      "Name" : "Liuzi Health Centre",
      "Type" : "Health Centre",
      "Region" : "North",
      "District" : "Nkhata Bay",
      "Latitude" : -12.181,
      "Longitude" : 34.01572
    },
    {
      "Name" : "Maula Health Centre",
      "Type" : "Health Centre",
      "Region" : "North",
      "District" : "Nkhata Bay",
      "Latitude" : -11.73518,
      "Longitude" : 34.23514
    },
    {
      "Name" : "Mpamba Health Centre",
      "Type" : "Health Centre",
      "Region" : "North",
      "District" : "Nkhata Bay",
      "Latitude" : -11.546,
      "Longitude" : 34.127
    },
    {
      "Name" : "Mzenga Health Centre",
      "Type" : "Health Centre",
      "Region" : "North",
      "District" : "Nkhata Bay",
      "Latitude" : -11.73249,
      "Longitude" : 34.07401
    },
    {
      "Name" : "Usisya Health Centre",
      "Type" : "Health Centre",
      "Region" : "North",
      "District" : "Nkhata Bay",
      "Latitude" : -11.2394,
      "Longitude" : 34.20941
    },
    {
      "Name" : "Khondowe",
      "Type" : "Health Centre",
      "Region" : "North",
      "District" : "Nkhata Bay",
      "Latitude" : -11.07281,
      "Longitude" : 34.21939
    },
    {
      "Name" : "Ruarwe Dispensary",
      "Type" : "Dispensary",
      "Region" : "North",
      "District" : "Nkhata Bay",
      "Latitude" : -11.11377,
      "Longitude" : 34.23093
    },
    {
      "Name" : "Nthungwa Health Centre",
      "Type" : "Health Centre",
      "Region" : "North",
      "District" : "Nkhata Bay",
      "Latitude" : -11.66014,
      "Longitude" : 33.80046
    },
    {
      "Name" : "Lwazi Health Centre",
      "Type" : "Health Centre",
      "Region" : "North",
      "District" : "Nkhata Bay",
      "Latitude" : -11.51864,
      "Longitude" : 34.15115
    },
    {
      "Name" : "Chilambwe Health Centre",
      "Type" : "Health Centre",
      "Region" : "North",
      "District" : "Nkhata Bay",
      "Latitude" : -11.69114,
      "Longitude" : 34.31617
    },
    {
      "Name" : "Vizara Dispensary",
      "Type" : "Dispensary",
      "Region" : "North",
      "District" : "Nkhata Bay",
      "Latitude" : -11.66656,
      "Longitude" : 34.26115
    },
    {
      "Name" : "Cumnock Private Clinic",
      "Type" : "Clinic",
      "Region" : "North",
      "District" : "Nkhata Bay",
      "Latitude" : -11.52705,
      "Longitude" : 34.08482
    },
    {
      "Name" : "Nkhata Bay Private Clinic",
      "Type" : "Clinic",
      "Region" : "North",
      "District" : "Nkhata Bay",
      "Latitude" : -11.60663,
      "Longitude" : 34.29549
    },
    {
      "Name" : "Raha Private Clinic",
      "Type" : "Clinic",
      "Region" : "North",
      "District" : "Nkhata Bay",
      "Latitude" : -11.61228,
      "Longitude" : 34.26874
    },
    {
      "Name" : "Banja La Mstogolo (BLM) Nkhata",
      "Type" : "Clinic",
      "Region" : "North",
      "District" : "Nkhata Bay",
      "Latitude" : -11.60907,
      "Longitude" : 34.29899
    },
    {
      "Name" : "Mwaya Clinic",
      "Type" : "Dispensary",
      "Region" : "North",
      "District" : "Nkhata Bay",
      "Latitude" : -11.658,
      "Longitude" : 34.07603
    },
    {
      "Name" : "Kavuzi Clinic",
      "Type" : "Clinic",
      "Region" : "North",
      "District" : "Nkhata Bay",
      "Latitude" : -11.67441,
      "Longitude" : 34.08166
    },
    {
      "Name" : "Kawalazi Estate Clinic",
      "Type" : "Clinic",
      "Region" : "North",
      "District" : "Nkhata Bay",
      "Latitude" : -11.64406,
      "Longitude" : 34.10983
    },
    {
      "Name" : "Rumphi District Hospital",
      "Type" : "District Hospital",
      "Region" : "North",
      "District" : "Rumphi",
      "Latitude" : -11.01993,
      "Longitude" : 33.85422
    },
    {
      "Name" : "Tcharo Health Centre",
      "Type" : "Health Centre",
      "Region" : "North",
      "District" : "Rumphi",
      "Latitude" : -10.96193,
      "Longitude" : 34.22225
    },
    {
      "Name" : "Bolero Rural Hospital",
      "Type" : "Rural/Community Hospital",
      "Region" : "North",
      "District" : "Rumphi",
      "Latitude" : -10.843,
      "Longitude" : 33.74342
    },
    {
      "Name" : "Katowo Rural Hospital",
      "Type" : "Rural/Community Hospital",
      "Region" : "North",
      "District" : "Rumphi",
      "Latitude" : -10.81278,
      "Longitude" : 33.52222
    },
    {
      "Name" : "Mhuju Rural Hospital",
      "Type" : "Rural/Community Hospital",
      "Region" : "North",
      "District" : "Rumphi",
      "Latitude" : -10.86685,
      "Longitude" : 33.965
    },
    {
      "Name" : "Chitimba Health Centre",
      "Type" : "Health Centre",
      "Region" : "North",
      "District" : "Rumphi",
      "Latitude" : -10.59808,
      "Longitude" : 34.17026
    },
    {
      "Name" : "Chisimuka Health Centre",
      "Type" : "Health Centre",
      "Region" : "North",
      "District" : "Rumphi",
      "Latitude" : -10.76924,
      "Longitude" : 33.55751
    },
    {
      "Name" : "Jalawe Health Centre",
      "Type" : "Health Centre",
      "Region" : "North",
      "District" : "Rumphi",
      "Latitude" : -10.73052,
      "Longitude" : 34.16172
    },
    {
      "Name" : "Lura Health Centre",
      "Type" : "Health Centre",
      "Region" : "North",
      "District" : "Rumphi",
      "Latitude" : -10.72638,
      "Longitude" : 34.04408
    },
    {
      "Name" : "Mphompha Health Centre",
      "Type" : "Health Centre",
      "Region" : "North",
      "District" : "Rumphi",
      "Latitude" : -11.00662,
      "Longitude" : 34.07305
    },
    {
      "Name" : "Mwazisi Health Centre",
      "Type" : "Health Centre",
      "Region" : "North",
      "District" : "Rumphi",
      "Latitude" : -10.94356,
      "Longitude" : 33.5792
    },
    {
      "Name" : "Mzokoto Health Centre",
      "Type" : "Health Centre",
      "Region" : "North",
      "District" : "Rumphi",
      "Latitude" : -10.90777,
      "Longitude" : 34.02735
    },
    {
      "Name" : "Ng'onga Health Centre",
      "Type" : "Dispensary",
      "Region" : "North",
      "District" : "Rumphi",
      "Latitude" : -10.93922,
      "Longitude" : 33.94348
    },
    {
      "Name" : "Chilinda",
      "Type" : "Health Post",
      "Region" : "North",
      "District" : "Rumphi",
      "Latitude" : -10.59101,
      "Longitude" : 33.80605
    },
    {
      "Name" : "Zunga Health Post",
      "Type" : "Health Post",
      "Region" : "North",
      "District" : "Rumphi",
      "Latitude" : -10.84628,
      "Longitude" : 34.21231
    },
    {
      "Name" : "Livingstonia Mission Hospital",
      "Type" : "Rural/Community Hospital",
      "Region" : "North",
      "District" : "Rumphi",
      "Latitude" : -10.60467,
      "Longitude" : 34.1109
    },
    {
      "Name" : "Luwuchi Health Centre",
      "Type" : "Health Centre",
      "Region" : "North",
      "District" : "Rumphi",
      "Latitude" : -10.68353,
      "Longitude" : 34.19353
    },
    {
      "Name" : "Mlowe Health Centre",
      "Type" : "Health Centre",
      "Region" : "North",
      "District" : "Rumphi",
      "Latitude" : -10.76429,
      "Longitude" : 34.19488
    },
    {
      "Name" : "Nthenje Health Centre",
      "Type" : "Health Centre",
      "Region" : "North",
      "District" : "Rumphi",
      "Latitude" : -10.91788,
      "Longitude" : 33.98786
    },
    {
      "Name" : "St. Patricks Health Centre",
      "Type" : "Health Centre",
      "Region" : "North",
      "District" : "Rumphi",
      "Latitude" : -11.022,
      "Longitude" : 33.87319
    },
    {
      "Name" : "Eva Demaya Private Clinic",
      "Type" : "Clinic",
      "Region" : "North",
      "District" : "Rumphi",
      "Latitude" : -10.96002,
      "Longitude" : 33.64862
    },
    {
      "Name" : "Kasambala Private Clinic",
      "Type" : "Clinic",
      "Region" : "North",
      "District" : "Rumphi",
      "Latitude" : -10.77593,
      "Longitude" : 34.03908
    },
    {
      "Name" : "Twisile Private Clinic, Nyondo",
      "Type" : "Clinic",
      "Region" : "North",
      "District" : "Rumphi",
      "Latitude" : -10.76,
      "Longitude" : 33.74598
    },
    {
      "Name" : "Wongani Private Clinic",
      "Type" : "Clinic",
      "Region" : "North",
      "District" : "Rumphi",
      "Latitude" : -11.02379,
      "Longitude" : 33.85419
    },
    {
      "Name" : "Phwezi Private Clinic",
      "Type" : "Clinic",
      "Region" : "North",
      "District" : "Rumphi",
      "Latitude" : -10.88762,
      "Longitude" : 34.04446
    },
    {
      "Name" : "Rumphi BLM",
      "Type" : "Clinic",
      "Region" : "North",
      "District" : "Rumphi",
      "Latitude" : -11.02279,
      "Longitude" : 33.85523
    },
    {
      "Name" : "Mchenga Clinic",
      "Type" : "Clinic",
      "Region" : "North",
      "District" : "Rumphi",
      "Latitude" : -10.69957,
      "Longitude" : 34.14036
    },
    {
      "Name" : "Mzuzu Cental Hospital",
      "Type" : "Central Hospital",
      "Region" : "North",
      "District" : "Mzimba",
      "Latitude" : -11.42792,
      "Longitude" : 33.9955
    },
    {
      "Name" : "Mzimba District Hospital",
      "Type" : "District Hospital",
      "Region" : "North",
      "District" : "Mzimba",
      "Latitude" : -11.89805,
      "Longitude" : 33.58421
    },
    {
      "Name" : "Euthini Rural Hospital",
      "Type" : "Rural/Community Hospital",
      "Region" : "North",
      "District" : "Mzimba",
      "Latitude" : -11.45836,
      "Longitude" : 33.41925
    },
    {
      "Name" : "Katete Community Hospital",
      "Type" : "Rural/Community Hospital",
      "Region" : "North",
      "District" : "Mzimba",
      "Latitude" : -12.34592,
      "Longitude" : 33.61421
    },
    {
      "Name" : "Bulala Health Centre",
      "Type" : "Health Centre",
      "Region" : "North",
      "District" : "Mzimba",
      "Latitude" : -11.6781,
      "Longitude" : 33.44798
    },
    {
      "Name" : "Bwengu Health Centre",
      "Type" : "Health Centre",
      "Region" : "North",
      "District" : "Mzimba",
      "Latitude" : -11.06356,
      "Longitude" : 33.91646
    },
    {
      "Name" : "Chikangawa Health Centre",
      "Type" : "Health Centre",
      "Region" : "North",
      "District" : "Mzimba",
      "Latitude" : -11.84362,
      "Longitude" : 33.78759
    },
    {
      "Name" : "Choma Health Centre",
      "Type" : "Health Centre",
      "Region" : "North",
      "District" : "Mzimba",
      "Latitude" : -11.31318,
      "Longitude" : 33.99327
    },
    {
      "Name" : "Edingeni Health Centre",
      "Type" : "Health Centre",
      "Region" : "North",
      "District" : "Mzimba",
      "Latitude" : -12.04072,
      "Longitude" : 33.31295
    },
    {
      "Name" : "Emfeni Health Centre",
      "Type" : "Health Centre",
      "Region" : "North",
      "District" : "Mzimba",
      "Latitude" : -12.59406,
      "Longitude" : 33.606
    },
    {
      "Name" : "Emsizini Health Centre",
      "Type" : "Health Centre",
      "Region" : "North",
      "District" : "Mzimba",
      "Latitude" : -11.44435,
      "Longitude" : 33.82485
    },
    {
      "Name" : "Endindeni Health Centre",
      "Type" : "Health Centre",
      "Region" : "North",
      "District" : "Mzimba",
      "Latitude" : -11.75818,
      "Longitude" : 33.5561
    },
    {
      "Name" : "Engucwini Health Centre",
      "Type" : "Health Centre",
      "Region" : "North",
      "District" : "Mzimba",
      "Latitude" : -11.161,
      "Longitude" : 33.82314
    },
    {
      "Name" : "Enukweni Health Centre",
      "Type" : "Health Centre",
      "Region" : "North",
      "District" : "Mzimba",
      "Latitude" : -11.18005,
      "Longitude" : 33.88592
    },
    {
      "Name" : "Hoho Health Centre",
      "Type" : "Health Centre",
      "Region" : "North",
      "District" : "Mzimba",
      "Latitude" : -12.27815,
      "Longitude" : 33.6864
    },
    {
      "Name" : "Jenda Health Centre",
      "Type" : "Health Centre",
      "Region" : "North",
      "District" : "Mzimba",
      "Latitude" : -12.35206,
      "Longitude" : 33.54755
    },
    {
      "Name" : "Kabwafu Health Centre",
      "Type" : "Health Centre",
      "Region" : "North",
      "District" : "Mzimba",
      "Latitude" : -11.30869,
      "Longitude" : 33.52556
    },
    {
      "Name" : "Kafukule Health Centre",
      "Type" : "Health Centre",
      "Region" : "North",
      "District" : "Mzimba",
      "Latitude" : -11.4575,
      "Longitude" : 33.63395
    },
    {
      "Name" : "Kamteteka Health Centre",
      "Type" : "Health Centre",
      "Region" : "North",
      "District" : "Mzimba",
      "Latitude" : -11.83649,
      "Longitude" : 33.35892
    },
    {
      "Name" : "Kamwe Health Centre",
      "Type" : "Health Centre",
      "Region" : "North",
      "District" : "Mzimba",
      "Latitude" : -11.10265,
      "Longitude" : 33.78911
    },
    {
      "Name" : "Khosolo Health Centre",
      "Type" : "Health Centre",
      "Region" : "North",
      "District" : "Mzimba",
      "Latitude" : -12.4402,
      "Longitude" : 33.79133
    },
    {
      "Name" : "Nkhuyukuyu Health Centre",
      "Type" : "Health Centre",
      "Region" : "North",
      "District" : "Mzimba",
      "Latitude" : -11.22183,
      "Longitude" : 33.91461
    },
    {
      "Name" : "Luvwere Health Centre",
      "Type" : "Health Centre",
      "Region" : "North",
      "District" : "Mzimba",
      "Latitude" : -11.38921,
      "Longitude" : 33.6729
    },
    {
      "Name" : "Luwawa Health Centre",
      "Type" : "Health Centre",
      "Region" : "North",
      "District" : "Mzimba",
      "Latitude" : -12.11337,
      "Longitude" : 33.71943
    },
    {
      "Name" : "Luwelezi Health Centre",
      "Type" : "Health Centre",
      "Region" : "North",
      "District" : "Mzimba",
      "Latitude" : -12.48825,
      "Longitude" : 33.64119
    },
    {
      "Name" : "Luzi Health Centre",
      "Type" : "Health Centre",
      "Region" : "North",
      "District" : "Mzimba",
      "Latitude" : -10.99681,
      "Longitude" : 33.95583
    },
    {
      "Name" : "Madede Health Centre",
      "Type" : "Health Centre",
      "Region" : "North",
      "District" : "Mzimba",
      "Latitude" : -11.53894,
      "Longitude" : 33.29456
    },
    {
      "Name" : "Malidade Health Centre",
      "Type" : "Health Centre",
      "Region" : "North",
      "District" : "Mzimba",
      "Latitude" : -11.22926,
      "Longitude" : 33.49989
    },
    {
      "Name" : "Manyamula Health Centre",
      "Type" : "Health Centre",
      "Region" : "North",
      "District" : "Mzimba",
      "Latitude" : -11.94005,
      "Longitude" : 33.43945
    },
    {
      "Name" : "Matuli Health Centre",
      "Type" : "Health Centre",
      "Region" : "North",
      "District" : "Mzimba",
      "Latitude" : -11.48513,
      "Longitude" : 33.89613
    },
    {
      "Name" : "Mbalachanda Health Centre",
      "Type" : "Health Centre",
      "Region" : "North",
      "District" : "Mzimba",
      "Latitude" : -11.35738,
      "Longitude" : 33.37133
    },
    {
      "Name" : "Mkoma Health Centre",
      "Type" : "Health Centre",
      "Region" : "North",
      "District" : "Mzimba",
      "Latitude" : -12.61235,
      "Longitude" : 33.7824
    },
    {
      "Name" : "Mpherembe Health Centre",
      "Type" : "Health Centre",
      "Region" : "North",
      "District" : "Mzimba",
      "Latitude" : -11.28806,
      "Longitude" : 33.61431
    },
    {
      "Name" : "Msese Health Centre",
      "Type" : "Health Centre",
      "Region" : "North",
      "District" : "Mzimba",
      "Latitude" : -12.35951,
      "Longitude" : 33.74002
    },
    {
      "Name" : "Mtende Health Centre",
      "Type" : "Health Centre",
      "Region" : "North",
      "District" : "Mzimba",
      "Latitude" : -11.424,
      "Longitude" : 33.54894
    },
    {
      "Name" : "Mtwalo Health Centre",
      "Type" : "Health Centre",
      "Region" : "North",
      "District" : "Mzimba",
      "Latitude" : -11.39671,
      "Longitude" : 33.74591
    },
    {
      "Name" : "Mzalangwe Health Centre",
      "Type" : "Health Centre",
      "Region" : "North",
      "District" : "Mzimba",
      "Latitude" : -11.61228,
      "Longitude" : 33.5651
    },
    {
      "Name" : "Mzuzu Health Centre",
      "Type" : "Health Centre",
      "Region" : "North",
      "District" : "Mzimba",
      "Latitude" : -11.46138,
      "Longitude" : 34.01518
    },
    {
      "Name" : "Njuyu Health Centre",
      "Type" : "Health Centre",
      "Region" : "North",
      "District" : "Mzimba",
      "Latitude" : -11.52455,
      "Longitude" : 33.69953
    },
    {
      "Name" : "Thunduwike Health Centre",
      "Type" : "Health Centre",
      "Region" : "North",
      "District" : "Mzimba",
      "Latitude" : -11.17665,
      "Longitude" : 33.57636
    },
    {
      "Name" : "Ehehieni  Dispensary",
      "Type" : "Dispensary",
      "Region" : "North",
      "District" : "Mzimba",
      "Latitude" : -12.2621,
      "Longitude" : 33.58912
    },
    {
      "Name" : "Ekwaiweni Dispensary",
      "Type" : "Dispensary",
      "Region" : "North",
      "District" : "Mzimba",
      "Latitude" : -11.42309,
      "Longitude" : 33.866
    },
    {
      "Name" : "Lusangazi Dispensary",
      "Type" : "Dispensary",
      "Region" : "North",
      "District" : "Mzimba",
      "Latitude" : -11.499,
      "Longitude" : 33.94291
    },
    {
      "Name" : "Vibangalala Dispensary",
      "Type" : "Dispensary",
      "Region" : "North",
      "District" : "Mzimba",
      "Latitude" : -12.23433,
      "Longitude" : 33.48619
    },
    {
      "Name" : "Escom, Mzuzu",
      "Type" : "Clinic",
      "Region" : "North",
      "District" : "Mzimba",
      "Latitude" : -11.46287,
      "Longitude" : 34.02275
    },
    {
      "Name" : "Mzuzu Central Prison",
      "Type" : "Clinic",
      "Region" : "North",
      "District" : "Mzimba",
      "Latitude" : -11.46474,
      "Longitude" : 34.01991
    },
    {
      "Name" : "Zolozolo Health Post",
      "Type" : "Health Post",
      "Region" : "North",
      "District" : "Mzimba",
      "Latitude" : -11.4357,
      "Longitude" : 34.02394
    },
    {
      "Name" : "Embangweni Mission Hospital",
      "Type" : "Rural/Community Hospital",
      "Region" : "North",
      "District" : "Mzimba",
      "Latitude" : -12.13665,
      "Longitude" : 33.47681
    },
    {
      "Name" : "Mzambazi Community Hospital",
      "Type" : "Rural/Community Hospital",
      "Region" : "North",
      "District" : "Mzimba",
      "Latitude" : -11.42764,
      "Longitude" : 33.45031
    },
    {
      "Name" : "Ekwendeni Mission Hospital",
      "Type" : "Other Hospital",
      "Region" : "North",
      "District" : "Mzimba",
      "Latitude" : -11.37156,
      "Longitude" : 33.88342
    },
    {
      "Name" : "St. Johns Hospital",
      "Type" : "Other Hospital",
      "Region" : "North",
      "District" : "Mzimba",
      "Latitude" : -11.45161,
      "Longitude" : 34.02806
    },
    {
      "Name" : "St. John of God Mental Hospita",
      "Type" : "Other Hospital",
      "Region" : "North",
      "District" : "Mzimba",
      "Latitude" : -11.45571,
      "Longitude" : 34.01381
    },
    {
      "Name" : "Kalikumbi Health Centre",
      "Type" : "Health Centre",
      "Region" : "North",
      "District" : "Mzimba",
      "Latitude" : -12.2038,
      "Longitude" : 33.33352
    },
    {
      "Name" : "Lunjika Health Centre",
      "Type" : "Health Centre",
      "Region" : "North",
      "District" : "Mzimba",
      "Latitude" : -11.71451,
      "Longitude" : 33.6858
    },
    {
      "Name" : "Mabiri Health Centre",
      "Type" : "Health Centre",
      "Region" : "North",
      "District" : "Mzimba",
      "Latitude" : -12.24624,
      "Longitude" : 33.43
    },
    {
      "Name" : "Nkhorongo Health Centre",
      "Type" : "Health Centre",
      "Region" : "North",
      "District" : "Mzimba",
      "Latitude" : -11.3901,
      "Longitude" : 33.98514
    },
    {
      "Name" : "WAFC Private Clinic, Banda, Be",
      "Type" : "Clinic",
      "Region" : "North",
      "District" : "Mzimba",
      "Latitude" : -12.35458,
      "Longitude" : 33.55284
    },
    {
      "Name" : "Dr Musachi's Surgery",
      "Type" : "Clinic",
      "Region" : "North",
      "District" : "Mzimba",
      "Latitude" : -11.45771,
      "Longitude" : 34.01714
    },
    {
      "Name" : "Kaswavipindi private Clinic",
      "Type" : "Clinic",
      "Region" : "North",
      "District" : "Mzimba",
      "Latitude" : -11.90057,
      "Longitude" : 33.59465
    },
    {
      "Name" : "Masm Medi Clinic Katoto",
      "Type" : "Clinic",
      "Region" : "North",
      "District" : "Mzimba",
      "Latitude" : -11.47111,
      "Longitude" : 33.99535
    },
    {
      "Name" : "Chibanja Private Clinic, Mtika",
      "Type" : "Clinic",
      "Region" : "North",
      "District" : "Mzimba",
      "Latitude" : -11.45108,
      "Longitude" : 34.01178
    },
    {
      "Name" : "Mumbwe Medical Centre",
      "Type" : "Clinic",
      "Region" : "North",
      "District" : "Mzimba",
      "Latitude" : -11.46115,
      "Longitude" : 34.02599
    },
    {
      "Name" : "Vitumbiko Private Clinic",
      "Type" : "Clinic",
      "Region" : "North",
      "District" : "Mzimba",
      "Latitude" : -11.46986,
      "Longitude" : 34.06929
    },
    {
      "Name" : "Care Medical Centre, Mtambo, M",
      "Type" : "Clinic",
      "Region" : "North",
      "District" : "Mzimba",
      "Latitude" : -11.46036,
      "Longitude" : 34.00696
    },
    {
      "Name" : "Macro Mzuzu",
      "Type" : "Clinic",
      "Region" : "North",
      "District" : "Mzimba",
      "Latitude" : -11.4649,
      "Longitude" : 34.00439
    },
    {
      "Name" : "Mzimba BLM",
      "Type" : "Clinic",
      "Region" : "North",
      "District" : "Mzimba",
      "Latitude" : -11.89882,
      "Longitude" : 33.59402
    },
    {
      "Name" : "Mzuzu BLM",
      "Type" : "Clinic",
      "Region" : "North",
      "District" : "Mzimba",
      "Latitude" : -11.45612,
      "Longitude" : 34.01638
    },
    {
      "Name" : "Raiply Clinic",
      "Type" : "Clinic",
      "Region" : "North",
      "District" : "Mzimba",
      "Latitude" : -11.91644,
      "Longitude" : 33.75598
    },
    {
      "Name" : "St Mary's / Chizumulu Health C",
      "Type" : "Health Centre",
      "Region" : "North",
      "District" : "Likoma",
      "Latitude" : -12.02934,
      "Longitude" : 34.62425
    },
    {
      "Name" : "Likoma/St Peters",
      "Type" : "Other Hospital",
      "Region" : "North",
      "District" : "Likoma",
      "Latitude" : -12.0648,
      "Longitude" : 34.73657
    },
    {
      "Name" : "Kasungu District Hospital",
      "Type" : "District Hospital",
      "Region" : "Central",
      "District" : "Kasungu",
      "Latitude" : -13.03579,
      "Longitude" : 33.48041
    },
    {
      "Name" : "Kaluluma Rural Hospital",
      "Type" : "Rural/Community Hospital",
      "Region" : "Central",
      "District" : "Kasungu",
      "Latitude" : -12.57759,
      "Longitude" : 33.51859
    },
    {
      "Name" : "Bua Health Centre",
      "Type" : "Health Centre",
      "Region" : "Central",
      "District" : "Kasungu",
      "Latitude" : -13.29403,
      "Longitude" : 33.53859
    },
    {
      "Name" : "Chamwabvi Health Centre",
      "Type" : "Health Centre",
      "Region" : "Central",
      "District" : "Kasungu",
      "Latitude" : -13.10757,
      "Longitude" : 33.68528
    },
    {
      "Name" : "Chulu Health Centre",
      "Type" : "Health Centre",
      "Region" : "Central",
      "District" : "Kasungu",
      "Latitude" : -12.82192,
      "Longitude" : 33.30816
    },
    {
      "Name" : "Kamboni Health Centre",
      "Type" : "Health Centre",
      "Region" : "Central",
      "District" : "Kasungu",
      "Latitude" : -13.30759,
      "Longitude" : 33.18189
    },
    {
      "Name" : "Kapelula Health Centre",
      "Type" : "Health Centre",
      "Region" : "Central",
      "District" : "Kasungu",
      "Latitude" : -12.87767,
      "Longitude" : 33.87086
    },
    {
      "Name" : "Kasalika Health Centre",
      "Type" : "Health Centre",
      "Region" : "Central",
      "District" : "Kasungu",
      "Latitude" : -13.03985,
      "Longitude" : 33.49866
    },
    {
      "Name" : "Kawamba Health Centre",
      "Type" : "Health Centre",
      "Region" : "Central",
      "District" : "Kasungu",
      "Latitude" : -13.29575,
      "Longitude" : 33.3393
    },
    {
      "Name" : "Khola Health Centre",
      "Type" : "Health Centre",
      "Region" : "Central",
      "District" : "Kasungu",
      "Latitude" : -13.34447,
      "Longitude" : 33.31649
    },
    {
      "Name" : "Linyangwa Health Centre",
      "Type" : "Health Centre",
      "Region" : "Central",
      "District" : "Kasungu",
      "Latitude" : -13.14379,
      "Longitude" : 33.3005
    },
    {
      "Name" : "Lodjwa Health Centre",
      "Type" : "Health Centre",
      "Region" : "Central",
      "District" : "Kasungu",
      "Latitude" : -12.41898,
      "Longitude" : 33.52947
    },
    {
      "Name" : "Mdunga Health Centre",
      "Type" : "Health Centre",
      "Region" : "Central",
      "District" : "Kasungu",
      "Latitude" : -12.9931,
      "Longitude" : 33.8519
    },
    {
      "Name" : "Mkhota Health Centre",
      "Type" : "Health Centre",
      "Region" : "Central",
      "District" : "Kasungu",
      "Latitude" : -13.56651,
      "Longitude" : 33.34348
    },
    {
      "Name" : "Mtunthama Health Centre",
      "Type" : "Health Centre",
      "Region" : "Central",
      "District" : "Kasungu",
      "Latitude" : -13.03145,
      "Longitude" : 33.68209
    },
    {
      "Name" : "Ntepa Health Centre",
      "Type" : "Health Centre",
      "Region" : "Central",
      "District" : "Kasungu",
      "Latitude" : -12.62202,
      "Longitude" : 33.32681
    },
    {
      "Name" : "Ofesi Health Centre",
      "Type" : "Health Centre",
      "Region" : "Central",
      "District" : "Kasungu",
      "Latitude" : -12.77939,
      "Longitude" : 33.54904
    },
    {
      "Name" : "Santhe Health Centre",
      "Type" : "Health Centre",
      "Region" : "Central",
      "District" : "Kasungu",
      "Latitude" : -13.46712,
      "Longitude" : 33.39378
    },
    {
      "Name" : "Simlemba Health Centre",
      "Type" : "Health Centre",
      "Region" : "Central",
      "District" : "Kasungu",
      "Latitude" : -12.74081,
      "Longitude" : 33.6764
    },
    {
      "Name" : "Wimbe Health Centre",
      "Type" : "Health Centre",
      "Region" : "Central",
      "District" : "Kasungu",
      "Latitude" : -12.99126,
      "Longitude" : 33.68694
    },
    {
      "Name" : "Dwangwa Dispensary",
      "Type" : "Dispensary",
      "Region" : "Central",
      "District" : "Kasungu",
      "Latitude" : -12.88142,
      "Longitude" : 33.4537
    },
    {
      "Name" : "Gogode Dispensary",
      "Type" : "Dispensary",
      "Region" : "Central",
      "District" : "Kasungu",
      "Latitude" : -12.88773,
      "Longitude" : 33.56134
    },
    {
      "Name" : "Nkhamenya Hospital",
      "Type" : "Rural/Community Hospital",
      "Region" : "Central",
      "District" : "Kasungu",
      "Latitude" : -12.56606,
      "Longitude" : 33.50098
    },
    {
      "Name" : "KTFT/Mziza Health Centre",
      "Type" : "Health Centre",
      "Region" : "Central",
      "District" : "Kasungu",
      "Latitude" : -13.27941,
      "Longitude" : 33.50405
    },
    {
      "Name" : "Newa Health Centre",
      "Type" : "Health Centre",
      "Region" : "Central",
      "District" : "Kasungu",
      "Latitude" : -12.58333,
      "Longitude" : 33.38174
    },
    {
      "Name" : "St. Andrews Health Centre",
      "Type" : "Health Centre",
      "Region" : "Central",
      "District" : "Kasungu",
      "Latitude" : -13.03263,
      "Longitude" : 33.67114
    },
    {
      "Name" : "St. Faith Anglican Clinic",
      "Type" : "Clinic",
      "Region" : "Central",
      "District" : "Kasungu",
      "Latitude" : -12.92886,
      "Longitude" : 33.7952
    },
    {
      "Name" : "Kasalika Private Clinic, Chimb",
      "Type" : "Clinic",
      "Region" : "Central",
      "District" : "Kasungu",
      "Latitude" : -13.03522,
      "Longitude" : 33.49927
    },
    {
      "Name" : "Yankho Private Clinic",
      "Type" : "Clinic",
      "Region" : "Central",
      "District" : "Kasungu",
      "Latitude" : -13.04044,
      "Longitude" : 33.48111
    },
    {
      "Name" : "Chimwemwe Private Clinic",
      "Type" : "Clinic",
      "Region" : "Central",
      "District" : "Kasungu",
      "Latitude" : -12.56717,
      "Longitude" : 33.51149
    },
    {
      "Name" : "Mbalunji Private Clinic, Dhlam",
      "Type" : "Clinic",
      "Region" : "Central",
      "District" : "Kasungu",
      "Latitude" : -12.81406,
      "Longitude" : 33.4339
    },
    {
      "Name" : "Gogo Leya Private Clinic",
      "Type" : "Clinic",
      "Region" : "Central",
      "District" : "Kasungu",
      "Latitude" : -12.70032,
      "Longitude" : 33.48899
    },
    {
      "Name" : "Kalikene Private Clinic",
      "Type" : "Clinic",
      "Region" : "Central",
      "District" : "Kasungu",
      "Latitude" : -13.0389,
      "Longitude" : 33.48138
    },
    {
      "Name" : "Chikumbutso Private Clinic, Ng",
      "Type" : "Clinic",
      "Region" : "Central",
      "District" : "Kasungu",
      "Latitude" : -13.06516,
      "Longitude" : 33.43482
    },
    {
      "Name" : "Nkuriza, Stanilas, Inernos Pri",
      "Type" : "Clinic",
      "Region" : "Central",
      "District" : "Kasungu",
      "Latitude" : -12.92741,
      "Longitude" : 33.79628
    },
    {
      "Name" : "Phanga, Chimongo J. Prince Hen",
      "Type" : "Clinic",
      "Region" : "Central",
      "District" : "Kasungu",
      "Latitude" : -13.21163,
      "Longitude" : 33.50302
    },
    {
      "Name" : "Phiri, Harold K. S. Chisomo Pr",
      "Type" : "Clinic",
      "Region" : "Central",
      "District" : "Kasungu",
      "Latitude" : -13.4379,
      "Longitude" : 33.38416
    },
    {
      "Name" : "Veruwa, Flyven P. Mphatso Zath",
      "Type" : "Clinic",
      "Region" : "Central",
      "District" : "Kasungu",
      "Latitude" : -13.0675,
      "Longitude" : 33.482
    },
    {
      "Name" : "Kasungu BLM",
      "Type" : "Clinic",
      "Region" : "Central",
      "District" : "Kasungu",
      "Latitude" : -13.04309,
      "Longitude" : 33.47858
    },
    {
      "Name" : "Kamuzu Academy Clinic",
      "Type" : "Clinic",
      "Region" : "Central",
      "District" : "Kasungu",
      "Latitude" : -13.02938,
      "Longitude" : 33.68843
    },
    {
      "Name" : "Nkhotakota District Hospital",
      "Type" : "District Hospital",
      "Region" : "Central",
      "District" : "Nkhotakota",
      "Latitude" : -12.92508,
      "Longitude" : 34.27939
    },
    {
      "Name" : "Dwambazi Rural Hospital",
      "Type" : "Rural/Community Hospital",
      "Region" : "Central",
      "District" : "Nkhotakota",
      "Latitude" : -12.23405,
      "Longitude" : 33.99194
    },
    {
      "Name" : "Benga Health Centre",
      "Type" : "Health Centre",
      "Region" : "Central",
      "District" : "Nkhotakota",
      "Latitude" : -13.36846,
      "Longitude" : 34.27404
    },
    {
      "Name" : "Bua Health Centre",
      "Type" : "Health Centre",
      "Region" : "Central",
      "District" : "Nkhotakota",
      "Latitude" : -12.7967,
      "Longitude" : 34.201
    },
    {
      "Name" : "Katimbira Health Centre",
      "Type" : "Health Centre",
      "Region" : "Central",
      "District" : "Nkhotakota",
      "Latitude" : -12.75694,
      "Longitude" : 34.21737
    },
    {
      "Name" : "Malowa Health Centre",
      "Type" : "Health Centre",
      "Region" : "Central",
      "District" : "Nkhotakota",
      "Latitude" : -13.1816,
      "Longitude" : 34.25165
    },
    {
      "Name" : "Mpamantha Health Centre",
      "Type" : "Health Centre",
      "Region" : "Central",
      "District" : "Nkhotakota",
      "Latitude" : -13.06926,
      "Longitude" : 34.25224
    },
    {
      "Name" : "Msenjere Health Centre",
      "Type" : "Health Centre",
      "Region" : "Central",
      "District" : "Nkhotakota",
      "Latitude" : -12.73248,
      "Longitude" : 34.17062
    },
    {
      "Name" : "Mtosa Health Centre",
      "Type" : "Health Centre",
      "Region" : "Central",
      "District" : "Nkhotakota",
      "Latitude" : -13.43876,
      "Longitude" : 34.27365
    },
    {
      "Name" : "Mwansambo Health Centre",
      "Type" : "Health Centre",
      "Region" : "Central",
      "District" : "Nkhotakota",
      "Latitude" : -13.30698,
      "Longitude" : 34.11877
    },
    {
      "Name" : "Ngala Health Centre",
      "Type" : "Health Centre",
      "Region" : "Central",
      "District" : "Nkhotakota",
      "Latitude" : -12.36529,
      "Longitude" : 34.06552
    },
    {
      "Name" : "Nkhunga Health Centre",
      "Type" : "Health Centre",
      "Region" : "Central",
      "District" : "Nkhotakota",
      "Latitude" : -12.48023,
      "Longitude" : 34.10842
    },
    {
      "Name" : "Kaongozi Dispensary",
      "Type" : "Dispensary",
      "Region" : "Central",
      "District" : "Nkhotakota",
      "Latitude" : -12.43665,
      "Longitude" : 34.04998
    },
    {
      "Name" : "Alinafe Community Hospital",
      "Type" : "Rural/Community Hospital",
      "Region" : "Central",
      "District" : "Nkhotakota",
      "Latitude" : -13.38789,
      "Longitude" : 34.24292
    },
    {
      "Name" : "St. Annes Hospital",
      "Type" : "Other Hospital",
      "Region" : "Central",
      "District" : "Nkhotakota",
      "Latitude" : -12.92747,
      "Longitude" : 34.29554
    },
    {
      "Name" : "Chididi Health Centre",
      "Type" : "Health Centre",
      "Region" : "Central",
      "District" : "Nkhotakota",
      "Latitude" : -13.08573,
      "Longitude" : 34.31474
    },
    {
      "Name" : "Kapili Health Centre",
      "Type" : "Health Centre",
      "Region" : "Central",
      "District" : "Nkhotakota",
      "Latitude" : -13.21616,
      "Longitude" : 34.31136
    },
    {
      "Name" : "Kasitu Health Centre",
      "Type" : "Health Centre",
      "Region" : "Central",
      "District" : "Nkhotakota",
      "Latitude" : -12.30938,
      "Longitude" : 34.0343
    },
    {
      "Name" : "Liwaladzi Health Centre",
      "Type" : "Health Centre",
      "Region" : "Central",
      "District" : "Nkhotakota",
      "Latitude" : -12.62054,
      "Longitude" : 34.16538
    },
    {
      "Name" : "Kamanga, Lester P, Hossana Pri",
      "Type" : "Clinic",
      "Region" : "Central",
      "District" : "Nkhotakota",
      "Latitude" : -12.92861,
      "Longitude" : 34.28305
    },
    {
      "Name" : "Mkoko, Arthur B, Chisomo Priva",
      "Type" : "Clinic",
      "Region" : "Central",
      "District" : "Nkhotakota",
      "Latitude" : -12.50588,
      "Longitude" : 34.11234
    },
    {
      "Name" : "Nyamvuu Clinic",
      "Type" : "Clinic",
      "Region" : "Central",
      "District" : "Nkhotakota",
      "Latitude" : -12.47912,
      "Longitude" : 34.13604
    },
    {
      "Name" : "Ukasi Clinic",
      "Type" : "Clinic",
      "Region" : "Central",
      "District" : "Nkhotakota",
      "Latitude" : -12.52926,
      "Longitude" : 34.16337
    },
    {
      "Name" : "Dwangwa BLM",
      "Type" : "Clinic",
      "Region" : "Central",
      "District" : "Nkhotakota",
      "Latitude" : -12.505,
      "Longitude" : 34.1121
    },
    {
      "Name" : "NASO (Nkhotakota Aids Support",
      "Type" : "Clinic",
      "Region" : "Central",
      "District" : "Nkhotakota",
      "Latitude" : -12.92739,
      "Longitude" : 34.28465
    },
    {
      "Name" : "Nkhotakota BLM",
      "Type" : "Clinic",
      "Region" : "Central",
      "District" : "Nkhotakota",
      "Latitude" : -12.92429,
      "Longitude" : 34.28346
    },
    {
      "Name" : "World Medical Fund",
      "Type" : "Clinic",
      "Region" : "Central",
      "District" : "Nkhotakota",
      "Latitude" : -12.91536,
      "Longitude" : 34.28338
    },
    {
      "Name" : "Matiki Health Centre",
      "Type" : "Health Centre",
      "Region" : "Central",
      "District" : "Nkhotakota",
      "Latitude" : -12.49874,
      "Longitude" : 34.15464
    },
    {
      "Name" : "Dwangwa Cane Grower Ltd Clinic",
      "Type" : "Clinic",
      "Region" : "Central",
      "District" : "Nkhotakota",
      "Latitude" : -12.52114,
      "Longitude" : 34.1191
    },
    {
      "Name" : "Central 3 Clinic",
      "Type" : "Clinic",
      "Region" : "Central",
      "District" : "Nkhotakota",
      "Latitude" : -12.5033,
      "Longitude" : 34.1308
    },
    {
      "Name" : "Ntchisi District Hospital",
      "Type" : "District Hospital",
      "Region" : "Central",
      "District" : "Ntchisi",
      "Latitude" : -13.36345,
      "Longitude" : 33.91061
    },
    {
      "Name" : "Chinguluwe Health Centre",
      "Type" : "Health Centre",
      "Region" : "Central",
      "District" : "Ntchisi",
      "Latitude" : -13.26166,
      "Longitude" : 33.86851
    },
    {
      "Name" : "Kamsonga Health Centre",
      "Type" : "Health Centre",
      "Region" : "Central",
      "District" : "Ntchisi",
      "Latitude" : -13.27411,
      "Longitude" : 33.79949
    },
    {
      "Name" : "Kangolwa Health centre",
      "Type" : "Health Centre",
      "Region" : "Central",
      "District" : "Ntchisi",
      "Latitude" : -13.37046,
      "Longitude" : 34.07048
    },
    {
      "Name" : "Khuwi Health Centre",
      "Type" : "Health Centre",
      "Region" : "Central",
      "District" : "Ntchisi",
      "Latitude" : -13.43192,
      "Longitude" : 33.83367
    },
    {
      "Name" : "Malomo Health Centre",
      "Type" : "Health Centre",
      "Region" : "Central",
      "District" : "Ntchisi",
      "Latitude" : -13.14861,
      "Longitude" : 33.83927
    },
    {
      "Name" : "Mkhuzi Health Centre",
      "Type" : "Health Centre",
      "Region" : "Central",
      "District" : "Ntchisi",
      "Latitude" : -13.36646,
      "Longitude" : 33.77662
    },
    {
      "Name" : "Mndinda Health Centre",
      "Type" : "Health Centre",
      "Region" : "Central",
      "District" : "Ntchisi",
      "Latitude" : -13.2474,
      "Longitude" : 34.05675
    },
    {
      "Name" : "Mzandu Health Centre",
      "Type" : "Health Centre",
      "Region" : "Central",
      "District" : "Ntchisi",
      "Latitude" : -13.48916,
      "Longitude" : 34.02738
    },
    {
      "Name" : "Nthondo Health Centre",
      "Type" : "Health Centre",
      "Region" : "Central",
      "District" : "Ntchisi",
      "Latitude" : -13.24723,
      "Longitude" : 34.00699
    },
    {
      "Name" : "Chinthembwe Health Centre",
      "Type" : "Health Centre",
      "Region" : "Central",
      "District" : "Ntchisi",
      "Latitude" : -13.43326,
      "Longitude" : 33.527
    },
    {
      "Name" : "Malambo Health Centre",
      "Type" : "Health Centre",
      "Region" : "Central",
      "District" : "Ntchisi",
      "Latitude" : -13.21307,
      "Longitude" : 33.76244
    },
    {
      "Name" : "Asimec Clinic",
      "Type" : "Clinic",
      "Region" : "Central",
      "District" : "Ntchisi",
      "Latitude" : -13.3587,
      "Longitude" : 33.91619
    },
    {
      "Name" : "Fancy Private Clinic",
      "Type" : "Clinic",
      "Region" : "Central",
      "District" : "Ntchisi",
      "Latitude" : -13.35325,
      "Longitude" : 33.9191
    },
    {
      "Name" : "Dowa District Hospital",
      "Type" : "District Hospital",
      "Region" : "Central",
      "District" : "Dowa",
      "Latitude" : -13.65432,
      "Longitude" : 33.93625
    },
    {
      "Name" : "Mponela Rural Hospital",
      "Type" : "Rural/Community Hospital",
      "Region" : "Central",
      "District" : "Dowa",
      "Latitude" : -13.53264,
      "Longitude" : 33.73713
    },
    {
      "Name" : "Bowe Health Centre",
      "Type" : "Health Centre",
      "Region" : "Central",
      "District" : "Dowa",
      "Latitude" : -13.27878,
      "Longitude" : 33.68392
    },
    {
      "Name" : "Chakhaza Health Centre",
      "Type" : "Health Centre",
      "Region" : "Central",
      "District" : "Dowa",
      "Latitude" : -13.44421,
      "Longitude" : 33.64676
    },
    {
      "Name" : "Chankhungu Health Centre",
      "Type" : "Health Centre",
      "Region" : "Central",
      "District" : "Dowa",
      "Latitude" : -13.76492,
      "Longitude" : 34.01471
    },
    {
      "Name" : "Chinkhwiri Health Centre",
      "Type" : "Health Centre",
      "Region" : "Central",
      "District" : "Dowa",
      "Latitude" : -13.38557,
      "Longitude" : 33.72106
    },
    {
      "Name" : "Chisepo Health Centre",
      "Type" : "Health Centre",
      "Region" : "Central",
      "District" : "Dowa",
      "Latitude" : -13.63492,
      "Longitude" : 33.47017
    },
    {
      "Name" : "Chizolowondo Health Centre",
      "Type" : "Health Centre",
      "Region" : "Central",
      "District" : "Dowa",
      "Latitude" : -13.46336,
      "Longitude" : 33.51328
    },
    {
      "Name" : "Dzaleka Health Centre",
      "Type" : "Health Centre",
      "Region" : "Central",
      "District" : "Dowa",
      "Latitude" : -13.66168,
      "Longitude" : 33.87042
    },
    {
      "Name" : "Dzoole Health Centre",
      "Type" : "Health Centre",
      "Region" : "Central",
      "District" : "Dowa",
      "Latitude" : -13.58537,
      "Longitude" : 33.66156
    },
    {
      "Name" : "Kayembe Health Centre",
      "Type" : "Health Centre",
      "Region" : "Central",
      "District" : "Dowa",
      "Latitude" : -13.64256,
      "Longitude" : 33.58301
    },
    {
      "Name" : "Mbingwa Health Centre",
      "Type" : "Health Centre",
      "Region" : "Central",
      "District" : "Dowa",
      "Latitude" : -13.54425,
      "Longitude" : 33.51485
    },
    {
      "Name" : "Msakambewa Health Centre",
      "Type" : "Health Centre",
      "Region" : "Central",
      "District" : "Dowa",
      "Latitude" : -13.55296,
      "Longitude" : 33.819
    },
    {
      "Name" : "Mvera Army Health Centre",
      "Type" : "Health Centre",
      "Region" : "Central",
      "District" : "Dowa",
      "Latitude" : -13.77963,
      "Longitude" : 34.1398
    },
    {
      "Name" : "Mwangala Health Centre",
      "Type" : "Health Centre",
      "Region" : "Central",
      "District" : "Dowa",
      "Latitude" : -13.48744,
      "Longitude" : 33.9234
    },
    {
      "Name" : "Nalunga Health Centre",
      "Type" : "Health Centre",
      "Region" : "Central",
      "District" : "Dowa",
      "Latitude" : -13.64378,
      "Longitude" : 34.0567
    },
    {
      "Name" : "Thonje Health Centre",
      "Type" : "Health Centre",
      "Region" : "Central",
      "District" : "Dowa",
      "Latitude" : -13.72624,
      "Longitude" : 34.23725
    },
    {
      "Name" : "Madisi Mission Hospital",
      "Type" : "Other Hospital",
      "Region" : "Central",
      "District" : "Dowa",
      "Latitude" : -13.40712,
      "Longitude" : 33.60813
    },
    {
      "Name" : "Mthengathenga Hospital",
      "Type" : "Other Hospital",
      "Region" : "Central",
      "District" : "Dowa",
      "Latitude" : -13.67165,
      "Longitude" : 33.77623
    },
    {
      "Name" : "Mvera Mission Health Centre",
      "Type" : "Health Centre",
      "Region" : "Central",
      "District" : "Dowa",
      "Latitude" : -13.73673,
      "Longitude" : 34.12876
    },
    {
      "Name" : "St. Mary's Rehabilitation Heal",
      "Type" : "Health Centre",
      "Region" : "Central",
      "District" : "Dowa",
      "Latitude" : -13.7252,
      "Longitude" : 34.03707
    },
    {
      "Name" : "Kasese/Lifeline Malawi Health",
      "Type" : "Health Centre",
      "Region" : "Central",
      "District" : "Dowa",
      "Latitude" : -13.33338,
      "Longitude" : 33.57629
    },
    {
      "Name" : "Dalitso Private Clinic",
      "Type" : "Clinic",
      "Region" : "Central",
      "District" : "Dowa",
      "Latitude" : -13.42237,
      "Longitude" : 33.60932
    },
    {
      "Name" : "Kanyika, Mwakalinga M. Alinafe",
      "Type" : "Clinic",
      "Region" : "Central",
      "District" : "Dowa",
      "Latitude" : -13.54849,
      "Longitude" : 33.7421
    },
    {
      "Name" : "Mamoyo Private Clinic",
      "Type" : "Clinic",
      "Region" : "Central",
      "District" : "Dowa",
      "Latitude" : -13.53532,
      "Longitude" : 33.739
    },
    {
      "Name" : "Towoo's Private Clinic",
      "Type" : "Clinic",
      "Region" : "Central",
      "District" : "Dowa",
      "Latitude" : -13.70579,
      "Longitude" : 33.60186
    },
    {
      "Name" : "MBA-Esita Private Clinic",
      "Type" : "Clinic",
      "Region" : "Central",
      "District" : "Dowa",
      "Latitude" : -13.28282,
      "Longitude" : 33.68994
    },
    {
      "Name" : "BLM Mponela Clinic",
      "Type" : "Clinic",
      "Region" : "Central",
      "District" : "Dowa",
      "Latitude" : -13.531,
      "Longitude" : 33.73802
    },
    {
      "Name" : "Family Planning Association of",
      "Type" : "Clinic",
      "Region" : "Central",
      "District" : "Dowa",
      "Latitude" : -13.65834,
      "Longitude" : 33.93289
    },
    {
      "Name" : "Salima District Hospital",
      "Type" : "District Hospital",
      "Region" : "Central",
      "District" : "Salima",
      "Latitude" : -13.76214,
      "Longitude" : 34.42199
    },
    {
      "Name" : "Chagunda Health Centre",
      "Type" : "Health Centre",
      "Region" : "Central",
      "District" : "Salima",
      "Latitude" : -13.88028,
      "Longitude" : 34.36721
    },
    {
      "Name" : "Chinguluwe Health Centre",
      "Type" : "Health Centre",
      "Region" : "Central",
      "District" : "Salima",
      "Latitude" : -13.66454,
      "Longitude" : 34.38503
    },
    {
      "Name" : "Chipoka Health Centre",
      "Type" : "Health Centre",
      "Region" : "Central",
      "District" : "Salima",
      "Latitude" : -13.983,
      "Longitude" : 34.51545
    },
    {
      "Name" : "Khombedza Health Centre",
      "Type" : "Health Centre",
      "Region" : "Central",
      "District" : "Salima",
      "Latitude" : -13.59695,
      "Longitude" : 34.31111
    },
    {
      "Name" : "Lifuwu Health Centre",
      "Type" : "Health Centre",
      "Region" : "Central",
      "District" : "Salima",
      "Latitude" : -13.67915,
      "Longitude" : 34.58878
    },
    {
      "Name" : "MAFCO",
      "Type" : "Health Centre",
      "Region" : "Central",
      "District" : "Salima",
      "Latitude" : -13.78419,
      "Longitude" : 34.60338
    },
    {
      "Name" : "Maganga Health Centre",
      "Type" : "Health Centre",
      "Region" : "Central",
      "District" : "Salima",
      "Latitude" : -13.84681,
      "Longitude" : 34.5591
    },
    {
      "Name" : "Makioni Health Centre",
      "Type" : "Health Centre",
      "Region" : "Central",
      "District" : "Salima",
      "Latitude" : -13.58599,
      "Longitude" : 34.1
    },
    {
      "Name" : "Mchoka Health Centre",
      "Type" : "Health Centre",
      "Region" : "Central",
      "District" : "Salima",
      "Latitude" : -13.92593,
      "Longitude" : 34.48984
    },
    {
      "Name" : "Parachute Battalion",
      "Type" : "Health Centre",
      "Region" : "Central",
      "District" : "Salima",
      "Latitude" : -13.74314,
      "Longitude" : 34.58826
    },
    {
      "Name" : "Baptist Medical Clinic",
      "Type" : "Health Centre",
      "Region" : "Central",
      "District" : "Salima",
      "Latitude" : -13.73887,
      "Longitude" : 34.549
    },
    {
      "Name" : "Chitala Health Centre",
      "Type" : "Health Centre",
      "Region" : "Central",
      "District" : "Salima",
      "Latitude" : -13.67161,
      "Longitude" : 34.27174
    },
    {
      "Name" : "Kaphatenga Health Centre",
      "Type" : "Health Centre",
      "Region" : "Central",
      "District" : "Salima",
      "Latitude" : -13.76222,
      "Longitude" : 34.38418
    },
    {
      "Name" : "Ngodzi Health Centre",
      "Type" : "Health Centre",
      "Region" : "Central",
      "District" : "Salima",
      "Latitude" : -14.08926,
      "Longitude" : 34.50896
    },
    {
      "Name" : "Thavite Health Centre",
      "Type" : "Health Centre",
      "Region" : "Central",
      "District" : "Salima",
      "Latitude" : -13.498,
      "Longitude" : 34.26122
    },
    {
      "Name" : "Asante Private Clinic",
      "Type" : "Clinic",
      "Region" : "Central",
      "District" : "Salima",
      "Latitude" : -13.77065,
      "Longitude" : 34.44174
    },
    {
      "Name" : "Katemela Clinic",
      "Type" : "Clinic",
      "Region" : "Central",
      "District" : "Salima",
      "Latitude" : -13.78493,
      "Longitude" : 34.45888
    },
    {
      "Name" : "Madalitso Private Clinic",
      "Type" : "Clinic",
      "Region" : "Central",
      "District" : "Salima",
      "Latitude" : -13.78414,
      "Longitude" : 34.45409
    },
    {
      "Name" : "M & M Medical and Dental Clini",
      "Type" : "Clinic",
      "Region" : "Central",
      "District" : "Salima",
      "Latitude" : -13.77024,
      "Longitude" : 34.43795
    },
    {
      "Name" : "Muchila Private Clinic",
      "Type" : "Clinic",
      "Region" : "Central",
      "District" : "Salima",
      "Latitude" : -13.77774,
      "Longitude" : 34.43803
    },
    {
      "Name" : "Lifeline Health Centre",
      "Type" : "Health Centre",
      "Region" : "Central",
      "District" : "Salima",
      "Latitude" : -14.09219,
      "Longitude" : 34.54437
    },
    {
      "Name" : "Katawa Clinic",
      "Type" : "Clinic",
      "Region" : "Central",
      "District" : "Salima",
      "Latitude" : -13.71314,
      "Longitude" : 34.31801
    },
    {
      "Name" : "Salima BLM",
      "Type" : "Clinic",
      "Region" : "Central",
      "District" : "Salima",
      "Latitude" : -13.77042,
      "Longitude" : 34.43792
    },
    {
      "Name" : "Kamuzu Central Hospital",
      "Type" : "Central Hospital",
      "Region" : "Central",
      "District" : "Lilongwe",
      "Latitude" : -13.639,
      "Longitude" : 33.78512
    },
    {
      "Name" : "Kabudula Rural Hospital",
      "Type" : "Rural/Community Hospital",
      "Region" : "Central",
      "District" : "Lilongwe",
      "Latitude" : -13.812,
      "Longitude" : 33.44838
    },
    {
      "Name" : "Mitundu Community Hospital",
      "Type" : "Rural/Community Hospital",
      "Region" : "Central",
      "District" : "Lilongwe",
      "Latitude" : -14.24776,
      "Longitude" : 33.77465
    },
    {
      "Name" : "Kamuzu Barracks Hospital",
      "Type" : "Other Hospital",
      "Region" : "Central",
      "District" : "Lilongwe",
      "Latitude" : -13.98131,
      "Longitude" : 33.82105
    },
    {
      "Name" : "Area 18 Health Centre",
      "Type" : "Health Centre",
      "Region" : "Central",
      "District" : "Lilongwe",
      "Latitude" : -13.94131,
      "Longitude" : 33.78051
    },
    {
      "Name" : "Area 25 Health centre",
      "Type" : "Health Centre",
      "Region" : "Central",
      "District" : "Lilongwe",
      "Latitude" : -13.89272,
      "Longitude" : 33.77465
    },
    {
      "Name" : "Chadza Health Centre",
      "Type" : "Health Centre",
      "Region" : "Central",
      "District" : "Lilongwe",
      "Latitude" : -14.14715,
      "Longitude" : 33.84167
    },
    {
      "Name" : "Chikowa Health Centre",
      "Type" : "Health Centre",
      "Region" : "Central",
      "District" : "Lilongwe",
      "Latitude" : -13.72929,
      "Longitude" : 33.45821
    },
    {
      "Name" : "Chileka Health Centre",
      "Type" : "Health Centre",
      "Region" : "Central",
      "District" : "Lilongwe",
      "Latitude" : -14.02102,
      "Longitude" : 33.38544
    },
    {
      "Name" : "Chilobwe/Majiga Health Centre",
      "Type" : "Health Centre",
      "Region" : "Central",
      "District" : "Lilongwe",
      "Latitude" : -13.85467,
      "Longitude" : 33.37439
    },
    {
      "Name" : "Chimbalanga Health Centre",
      "Type" : "Health Centre",
      "Region" : "Central",
      "District" : "Lilongwe",
      "Latitude" : -13.9358,
      "Longitude" : 34.12567
    },
    {
      "Name" : "Chitedze Health Centre",
      "Type" : "Health Centre",
      "Region" : "Central",
      "District" : "Lilongwe",
      "Latitude" : -13.684,
      "Longitude" : 33.64529
    },
    {
      "Name" : "Chiunjiza Health Centre",
      "Type" : "Health Centre",
      "Region" : "Central",
      "District" : "Lilongwe",
      "Latitude" : -14.24322,
      "Longitude" : 33.4013
    },
    {
      "Name" : "Chiwamba Health Centre",
      "Type" : "Health Centre",
      "Region" : "Central",
      "District" : "Lilongwe",
      "Latitude" : -13.8571,
      "Longitude" : 33.92926
    },
    {
      "Name" : "Diamphwe Health Centre",
      "Type" : "Health Centre",
      "Region" : "Central",
      "District" : "Lilongwe",
      "Latitude" : -14.13232,
      "Longitude" : 34.08124
    },
    {
      "Name" : "Dickson Health Centre",
      "Type" : "Health Centre",
      "Region" : "Central",
      "District" : "Lilongwe",
      "Latitude" : -14.26626,
      "Longitude" : 33.65885
    },
    {
      "Name" : "Kang'oma Health Centre",
      "Type" : "Health Centre",
      "Region" : "Central",
      "District" : "Lilongwe",
      "Latitude" : -13.817,
      "Longitude" : 33.88219
    },
    {
      "Name" : "Katchale Health Centre",
      "Type" : "Health Centre",
      "Region" : "Central",
      "District" : "Lilongwe",
      "Latitude" : -14.2836,
      "Longitude" : 33.90782
    },
    {
      "Name" : "Kawale Health Centre",
      "Type" : "Health Centre",
      "Region" : "Central",
      "District" : "Lilongwe",
      "Latitude" : -13.99175,
      "Longitude" : 33.757
    },
    {
      "Name" : "Khongoni Health Centre",
      "Type" : "Health Centre",
      "Region" : "Central",
      "District" : "Lilongwe",
      "Latitude" : -13.77451,
      "Longitude" : 33.36761
    },
    {
      "Name" : "Lumbadzi Health Centre",
      "Type" : "Health Centre",
      "Region" : "Central",
      "District" : "Lilongwe",
      "Latitude" : -13.77074,
      "Longitude" : 33.80477
    },
    {
      "Name" : "Maluwa Health Centre",
      "Type" : "Health Centre",
      "Region" : "Central",
      "District" : "Lilongwe",
      "Latitude" : -14.26287,
      "Longitude" : 33.87364
    },
    {
      "Name" : "Matapila Health Centre",
      "Type" : "Health Centre",
      "Region" : "Central",
      "District" : "Lilongwe",
      "Latitude" : -14.01108,
      "Longitude" : 33.509
    },
    {
      "Name" : "Mbabvi Health Centre",
      "Type" : "Health Centre",
      "Region" : "Central",
      "District" : "Lilongwe",
      "Latitude" : -13.92808,
      "Longitude" : 33.67087
    },
    {
      "Name" : "Mbang'ombe 2 Health Centre",
      "Type" : "Health Centre",
      "Region" : "Central",
      "District" : "Lilongwe",
      "Latitude" : -14.16945,
      "Longitude" : 33.37942
    },
    {
      "Name" : "Mbangombe Health Centre 1",
      "Type" : "Health Centre",
      "Region" : "Central",
      "District" : "Lilongwe",
      "Latitude" : -13.73673,
      "Longitude" : 33.71382
    },
    {
      "Name" : "Ming'ong'o Health Centre",
      "Type" : "Health Centre",
      "Region" : "Central",
      "District" : "Lilongwe",
      "Latitude" : -14.07479,
      "Longitude" : 33.44838
    },
    {
      "Name" : "Mtenthela Health Centre",
      "Type" : "Health Centre",
      "Region" : "Central",
      "District" : "Lilongwe",
      "Latitude" : -14.10884,
      "Longitude" : 34.00567
    },
    {
      "Name" : "Nathenje Health Centre",
      "Type" : "Health Centre",
      "Region" : "Central",
      "District" : "Lilongwe",
      "Latitude" : -14.08504,
      "Longitude" : 33.90823
    },
    {
      "Name" : "Ndaula Health Centre",
      "Type" : "Health Centre",
      "Region" : "Central",
      "District" : "Lilongwe",
      "Latitude" : -14.1385,
      "Longitude" : 33.50757
    },
    {
      "Name" : "Ngoni Health Centre",
      "Type" : "Health Centre",
      "Region" : "Central",
      "District" : "Lilongwe",
      "Latitude" : -13.77509,
      "Longitude" : 33.64018
    },
    {
      "Name" : "Nsalu Health centre",
      "Type" : "Health Centre",
      "Region" : "Central",
      "District" : "Lilongwe",
      "Latitude" : -13.8855,
      "Longitude" : 33.5043
    },
    {
      "Name" : "Nthondo Health centre",
      "Type" : "Health Centre",
      "Region" : "Central",
      "District" : "Lilongwe",
      "Latitude" : -14.03153,
      "Longitude" : 33.44849
    },
    {
      "Name" : "Ukwe Health Centre",
      "Type" : "Health Centre",
      "Region" : "Central",
      "District" : "Lilongwe",
      "Latitude" : -13.82586,
      "Longitude" : 33.60129
    },
    {
      "Name" : "Bwaila Hospital",
      "Type" : "District Hospital",
      "Region" : "Central",
      "District" : "Lilongwe",
      "Latitude" : -13.99164,
      "Longitude" : 33.77561
    },
    {
      "Name" : "City Assembly Health",
      "Type" : "Clinic",
      "Region" : "Central",
      "District" : "Lilongwe",
      "Latitude" : -13.98931,
      "Longitude" : 33.77082
    },
    {
      "Name" : "David Livingstone Memorial Cli",
      "Type" : "Other Hospital",
      "Region" : "Central",
      "District" : "Lilongwe",
      "Latitude" : -13.98173,
      "Longitude" : 33.78813
    },
    {
      "Name" : "Lilongwe City Assembly Chinsap",
      "Type" : "Clinic",
      "Region" : "Central",
      "District" : "Lilongwe",
      "Latitude" : -14.01331,
      "Longitude" : 33.73171
    },
    {
      "Name" : "Nkhoma Mission Hospital",
      "Type" : "Other Hospital",
      "Region" : "Central",
      "District" : "Lilongwe",
      "Latitude" : -14.04389,
      "Longitude" : 34.1036
    },
    {
      "Name" : "Chiwe Health Centre",
      "Type" : "Health Centre",
      "Region" : "Central",
      "District" : "Lilongwe",
      "Latitude" : -13.90738,
      "Longitude" : 33.39862
    },
    {
      "Name" : "Nambuma Health Centre",
      "Type" : "Rural/Community Hospital",
      "Region" : "Central",
      "District" : "Lilongwe",
      "Latitude" : -13.72409,
      "Longitude" : 33.55789
    },
    {
      "Name" : "Daeyang Luke Hospital",
      "Type" : "Other Hospital",
      "Region" : "Central",
      "District" : "Lilongwe",
      "Latitude" : -13.87684,
      "Longitude" : 33.80867
    },
    {
      "Name" : "Likuni Mission Hospital",
      "Type" : "Other Hospital",
      "Region" : "Central",
      "District" : "Lilongwe",
      "Latitude" : -14.02683,
      "Longitude" : 33.70886
    },
    {
      "Name" : "Mlale Mission Hospital",
      "Type" : "Other Hospital",
      "Region" : "Central",
      "District" : "Lilongwe",
      "Latitude" : -14.23011,
      "Longitude" : 33.75658
    },
    {
      "Name" : "St. Gabriel Mission Hospital",
      "Type" : "Other Hospital",
      "Region" : "Central",
      "District" : "Lilongwe",
      "Latitude" : -13.98418,
      "Longitude" : 33.35128
    },
    {
      "Name" : "Dzenza Health Centre",
      "Type" : "Health Centre",
      "Region" : "Central",
      "District" : "Lilongwe",
      "Latitude" : -13.87598,
      "Longitude" : 33.74689
    },
    {
      "Name" : "Malembo Health Centre",
      "Type" : "Health Centre",
      "Region" : "Central",
      "District" : "Lilongwe",
      "Latitude" : -13.62006,
      "Longitude" : 33.41507
    },
    {
      "Name" : "Malingunde Health Centre",
      "Type" : "Health Centre",
      "Region" : "Central",
      "District" : "Lilongwe",
      "Latitude" : -14.16887,
      "Longitude" : 33.63
    },
    {
      "Name" : "Mbwatalika Health Centre",
      "Type" : "Health Centre",
      "Region" : "Central",
      "District" : "Lilongwe",
      "Latitude" : -14.00387,
      "Longitude" : 33.5507
    },
    {
      "Name" : "Area 24 Private Clinic",
      "Type" : "Clinic",
      "Region" : "Central",
      "District" : "Lilongwe",
      "Latitude" : -14.0205,
      "Longitude" : 33.79967
    },
    {
      "Name" : "Banda, Boniface An. N., Maziko",
      "Type" : "Clinic",
      "Region" : "Central",
      "District" : "Lilongwe",
      "Latitude" : -14.00507,
      "Longitude" : 33.81629
    },
    {
      "Name" : "Chete, Tenace D B. Chagogo Pri",
      "Type" : "Clinic",
      "Region" : "Central",
      "District" : "Lilongwe",
      "Latitude" : -14.07277,
      "Longitude" : 33.83195
    },
    {
      "Name" : "Chilewani, Billy B. K. Gift of",
      "Type" : "Clinic",
      "Region" : "Central",
      "District" : "Lilongwe",
      "Latitude" : -13.90729,
      "Longitude" : 33.75061
    },
    {
      "Name" : "Chigomezgo Private Clinic",
      "Type" : "Clinic",
      "Region" : "Central",
      "District" : "Lilongwe",
      "Latitude" : -13.8803,
      "Longitude" : 33.76018
    },
    {
      "Name" : "Chilinde Health Services",
      "Type" : "Clinic",
      "Region" : "Central",
      "District" : "Lilongwe",
      "Latitude" : -13.99587,
      "Longitude" : 33.81026
    },
    {
      "Name" : "Chimango, Amon B. Ali Private",
      "Type" : "Clinic",
      "Region" : "Central",
      "District" : "Lilongwe",
      "Latitude" : -13.78326,
      "Longitude" : 33.81586
    },
    {
      "Name" : "Chimwala Clinic",
      "Type" : "Clinic",
      "Region" : "Central",
      "District" : "Lilongwe",
      "Latitude" : -14.05121,
      "Longitude" : 33.79419
    },
    {
      "Name" : "Chirwa, Patrick W. Lilongwe  P",
      "Type" : "Clinic",
      "Region" : "Central",
      "District" : "Lilongwe",
      "Latitude" : -13.93877,
      "Longitude" : 33.7921
    },
    {
      "Name" : "Chonde, Numeri G. Malakia Priv",
      "Type" : "Clinic",
      "Region" : "Central",
      "District" : "Lilongwe",
      "Latitude" : -13.99455,
      "Longitude" : 33.80908
    },
    {
      "Name" : "City Centre Clinic",
      "Type" : "Other Hospital",
      "Region" : "Central",
      "District" : "Lilongwe",
      "Latitude" : -13.95666,
      "Longitude" : 33.7839
    },
    {
      "Name" : "Discovery Medi Clinic",
      "Type" : "Clinic",
      "Region" : "Central",
      "District" : "Lilongwe",
      "Latitude" : -13.95818,
      "Longitude" : 33.79159
    },
    {
      "Name" : "Dopa Private Clinic",
      "Type" : "Clinic",
      "Region" : "Central",
      "District" : "Lilongwe",
      "Latitude" : -13.88647,
      "Longitude" : 33.75712
    },
    {
      "Name" : "Dr AQA Ghumra",
      "Type" : "Clinic",
      "Region" : "Central",
      "District" : "Lilongwe",
      "Latitude" : -13.98907,
      "Longitude" : 33.77412
    },
    {
      "Name" : "Gama, Samuel, Kachi Private Cl",
      "Type" : "Clinic",
      "Region" : "Central",
      "District" : "Lilongwe",
      "Latitude" : -13.94267,
      "Longitude" : 33.77807
    },
    {
      "Name" : "Gika Private Clinic",
      "Type" : "Clinic",
      "Region" : "Central",
      "District" : "Lilongwe",
      "Latitude" : -13.8965,
      "Longitude" : 33.76435
    },
    {
      "Name" : "Gobede, Kalimanjira J. Chizika",
      "Type" : "Clinic",
      "Region" : "Central",
      "District" : "Lilongwe",
      "Latitude" : -14.13588,
      "Longitude" : 33.94554
    },
    {
      "Name" : "Gwaza, George R. Good Hope pri",
      "Type" : "Clinic",
      "Region" : "Central",
      "District" : "Lilongwe",
      "Latitude" : -14.00656,
      "Longitude" : 33.76453
    },
    {
      "Name" : "Hiwa, Snowden S. S S H Clinic",
      "Type" : "Clinic",
      "Region" : "Central",
      "District" : "Lilongwe",
      "Latitude" : -13.345,
      "Longitude" : 33.77328
    },
    {
      "Name" : "Howa, David A C. Area 36 Priva",
      "Type" : "Clinic",
      "Region" : "Central",
      "District" : "Lilongwe",
      "Latitude" : -14.01825,
      "Longitude" : 33.77906
    },
    {
      "Name" : "Kabota, Nathaniel S. Mt. Nkhom",
      "Type" : "Clinic",
      "Region" : "Central",
      "District" : "Lilongwe",
      "Latitude" : -13.87567,
      "Longitude" : 33.75477
    },
    {
      "Name" : "Kachepa, Stephen J. Kama Priva",
      "Type" : "Clinic",
      "Region" : "Central",
      "District" : "Lilongwe",
      "Latitude" : -14.00913,
      "Longitude" : 33.81687
    },
    {
      "Name" : "Kachere Clinic",
      "Type" : "Clinic",
      "Region" : "Central",
      "District" : "Lilongwe",
      "Latitude" : -14.00511,
      "Longitude" : 33.81734
    },
    {
      "Name" : "Kafodya, Charles M. Mpumulo Pr",
      "Type" : "Clinic",
      "Region" : "Central",
      "District" : "Lilongwe",
      "Latitude" : -14.0154,
      "Longitude" : 33.78389
    },
    {
      "Name" : "Kamalizeni, Joe N. Tachira Pri",
      "Type" : "Clinic",
      "Region" : "Central",
      "District" : "Lilongwe",
      "Latitude" : -14.01916,
      "Longitude" : 33.72849
    },
    {
      "Name" : "Kamatenda Private Clinic",
      "Type" : "Clinic",
      "Region" : "Central",
      "District" : "Lilongwe",
      "Latitude" : -14.00752,
      "Longitude" : 33.82203
    },
    {
      "Name" : "Kambiya, Paulino A M. Demera P",
      "Type" : "Clinic",
      "Region" : "Central",
      "District" : "Lilongwe",
      "Latitude" : -13.82433,
      "Longitude" : 33.44662
    },
    {
      "Name" : "Kamiza, Mary Z. Kim's Medical",
      "Type" : "Clinic",
      "Region" : "Central",
      "District" : "Lilongwe",
      "Latitude" : -13.99003,
      "Longitude" : 33.77382
    },
    {
      "Name" : "Kasmani, Mohamed I M. Hasani M",
      "Type" : "Clinic",
      "Region" : "Central",
      "District" : "Lilongwe",
      "Latitude" : -13.668,
      "Longitude" : 33.7513
    },
    {
      "Name" : "Kawale Medical Services",
      "Type" : "Clinic",
      "Region" : "Central",
      "District" : "Lilongwe",
      "Latitude" : -13.99034,
      "Longitude" : 33.717
    },
    {
      "Name" : "Khama Private Clinic",
      "Type" : "Clinic",
      "Region" : "Central",
      "District" : "Lilongwe",
      "Latitude" : -14.00916,
      "Longitude" : 33.81686
    },
    {
      "Name" : "Kharodia, Ahmed I.",
      "Type" : "Clinic",
      "Region" : "Central",
      "District" : "Lilongwe",
      "Latitude" : -13.98924,
      "Longitude" : 33.77741
    },
    {
      "Name" : "Malola, Lemson F. Umoyo Privat",
      "Type" : "Clinic",
      "Region" : "Central",
      "District" : "Lilongwe",
      "Latitude" : -14.00077,
      "Longitude" : 33.78337
    },
    {
      "Name" : "Manjolo, Khamalake F, Feroz Me",
      "Type" : "Clinic",
      "Region" : "Central",
      "District" : "Lilongwe",
      "Latitude" : -13.99252,
      "Longitude" : 33.772
    },
    {
      "Name" : "Masm Medi Clinic Lilongwe (Are",
      "Type" : "Other Hospital",
      "Region" : "Central",
      "District" : "Lilongwe",
      "Latitude" : -13.9319,
      "Longitude" : 33.81007
    },
    {
      "Name" : "Medical Aid Society of Malawi",
      "Type" : "Other Hospital",
      "Region" : "Central",
      "District" : "Lilongwe",
      "Latitude" : -13.96471,
      "Longitude" : 33.77771
    },
    {
      "Name" : "Mkhaya, Anakalet A. Mphatso Pr",
      "Type" : "Clinic",
      "Region" : "Central",
      "District" : "Lilongwe",
      "Latitude" : -14.03877,
      "Longitude" : 33.71063
    },
    {
      "Name" : "Mlolera Womens Clinic",
      "Type" : "Other Hospital",
      "Region" : "Central",
      "District" : "Lilongwe",
      "Latitude" : -13.95102,
      "Longitude" : 33.76703
    },
    {
      "Name" : "Muriya, Nemezio. Chifundo Priv",
      "Type" : "Clinic",
      "Region" : "Central",
      "District" : "Lilongwe",
      "Latitude" : -13.98105,
      "Longitude" : 33.80223
    },
    {
      "Name" : "Mwale, Charles M C. Yankho Pri",
      "Type" : "Clinic",
      "Region" : "Central",
      "District" : "Lilongwe",
      "Latitude" : -14.25007,
      "Longitude" : 33.7767
    },
    {
      "Name" : "Mwenyekonde, Elled. Seventh Ce",
      "Type" : "Clinic",
      "Region" : "Central",
      "District" : "Lilongwe",
      "Latitude" : -14.00775,
      "Longitude" : 33.81726
    },
    {
      "Name" : "Nkhalango Clinic",
      "Type" : "Clinic",
      "Region" : "Central",
      "District" : "Lilongwe",
      "Latitude" : -14.01291,
      "Longitude" : 33.70483
    },
    {
      "Name" : "Nyangulu, Daniel S.",
      "Type" : "Clinic",
      "Region" : "Central",
      "District" : "Lilongwe",
      "Latitude" : -14.00717,
      "Longitude" : 33.78419
    },
    {
      "Name" : "Sendezera, Michael J. Tendai P",
      "Type" : "Clinic",
      "Region" : "Central",
      "District" : "Lilongwe",
      "Latitude" : -13.77251,
      "Longitude" : 33.81345
    },
    {
      "Name" : "SOS Medical Centre",
      "Type" : "Clinic",
      "Region" : "Central",
      "District" : "Lilongwe",
      "Latitude" : -14.016,
      "Longitude" : 33.79275
    },
    {
      "Name" : "The Clinic",
      "Type" : "Clinic",
      "Region" : "Central",
      "District" : "Lilongwe",
      "Latitude" : -13.98495,
      "Longitude" : 33.76415
    },
    {
      "Name" : "Westcliff Clinic",
      "Type" : "Clinic",
      "Region" : "Central",
      "District" : "Lilongwe",
      "Latitude" : -14.00768,
      "Longitude" : 33.81013
    },
    {
      "Name" : "Blessings Hospital",
      "Type" : "Other Hospital",
      "Region" : "Central",
      "District" : "Lilongwe",
      "Latitude" : -13.79099,
      "Longitude" : 33.81707
    },
    {
      "Name" : "Mlodza/Seventh Day",
      "Type" : "Clinic",
      "Region" : "Central",
      "District" : "Lilongwe",
      "Latitude" : -14.007222,
      "Longitude" : 33.8175
    },
    {
      "Name" : "ABC Comm. Hospital",
      "Type" : "Other Hospital",
      "Region" : "Central",
      "District" : "Lilongwe",
      "Latitude" : -13.96816,
      "Longitude" : 33.74129
    },
    {
      "Name" : "Adventist Health Centre Area 1",
      "Type" : "Health Centre",
      "Region" : "Central",
      "District" : "Lilongwe",
      "Latitude" : -13.95473,
      "Longitude" : 33.7793
    },
    {
      "Name" : "Area 25 BLM",
      "Type" : "Clinic",
      "Region" : "Central",
      "District" : "Lilongwe",
      "Latitude" : -13.89488,
      "Longitude" : 33.76206
    },
    {
      "Name" : "BLM Kawale 1 Clinic",
      "Type" : "Clinic",
      "Region" : "Central",
      "District" : "Lilongwe",
      "Latitude" : -13.9915,
      "Longitude" : 33.79514
    },
    {
      "Name" : "BLM Falls Estate Clinic",
      "Type" : "Clinic",
      "Region" : "Central",
      "District" : "Lilongwe",
      "Latitude" : -13.99646,
      "Longitude" : 33.778
    },
    {
      "Name" : "FPAM Clinic",
      "Type" : "Clinic",
      "Region" : "Central",
      "District" : "Lilongwe",
      "Latitude" : -13.99076,
      "Longitude" : 33.79949
    },
    {
      "Name" : "Partners In Hope Clinic Moyo C",
      "Type" : "Other Hospital",
      "Region" : "Central",
      "District" : "Lilongwe",
      "Latitude" : -14.02341,
      "Longitude" : 33.78783
    },
    {
      "Name" : "Mchinji District Hospital",
      "Type" : "District Hospital",
      "Region" : "Central",
      "District" : "Mchinji",
      "Latitude" : -13.80273,
      "Longitude" : 32.88716
    },
    {
      "Name" : "Kochilira Rural Hospital",
      "Type" : "Rural/Community Hospital",
      "Region" : "Central",
      "District" : "Mchinji",
      "Latitude" : -13.78239,
      "Longitude" : 33.04385
    },
    {
      "Name" : "Chiosya Health Centre",
      "Type" : "Health Centre",
      "Region" : "Central",
      "District" : "Mchinji",
      "Latitude" : -13.79586,
      "Longitude" : 33.17534
    },
    {
      "Name" : "Chipumi Health Centre",
      "Type" : "Health Centre",
      "Region" : "Central",
      "District" : "Mchinji",
      "Latitude" : -13.62519,
      "Longitude" : 33.08151
    },
    {
      "Name" : "Kaigwazanga Health Centre",
      "Type" : "Health Centre",
      "Region" : "Central",
      "District" : "Mchinji",
      "Latitude" : -13.62678,
      "Longitude" : 32.92836
    },
    {
      "Name" : "Kapanga Health Centre",
      "Type" : "Health Centre",
      "Region" : "Central",
      "District" : "Mchinji",
      "Latitude" : -14.059,
      "Longitude" : 33.30626
    },
    {
      "Name" : "Mikundi Health Centre",
      "Type" : "Health Centre",
      "Region" : "Central",
      "District" : "Mchinji",
      "Latitude" : -13.70751,
      "Longitude" : 33.13821
    },
    {
      "Name" : "Mkanda Health Centre",
      "Type" : "Health Centre",
      "Region" : "Central",
      "District" : "Mchinji",
      "Latitude" : -13.5146,
      "Longitude" : 32.96085
    },
    {
      "Name" : "Nkhwazi Health Centre",
      "Type" : "Health Centre",
      "Region" : "Central",
      "District" : "Mchinji",
      "Latitude" : -13.92369,
      "Longitude" : 33.22672
    },
    {
      "Name" : "Tembwe Health Centre",
      "Type" : "Health Centre",
      "Region" : "Central",
      "District" : "Mchinji",
      "Latitude" : -13.90113,
      "Longitude" : 33.06226
    },
    {
      "Name" : "Namizana Clinic",
      "Type" : "Clinic",
      "Region" : "Central",
      "District" : "Mchinji",
      "Latitude" : -14.00195,
      "Longitude" : 33.2463
    },
    {
      "Name" : "Chimwankango Health Post",
      "Type" : "Health Post",
      "Region" : "Central",
      "District" : "Mchinji",
      "Latitude" : -13.40461,
      "Longitude" : 32.99357
    },
    {
      "Name" : "Gumba Health Post",
      "Type" : "Health Post",
      "Region" : "Central",
      "District" : "Mchinji",
      "Latitude" : -13.42125,
      "Longitude" : 33.11137
    },
    {
      "Name" : "Kazyozyo Health Post",
      "Type" : "Health Post",
      "Region" : "Central",
      "District" : "Mchinji",
      "Latitude" : -13.57544,
      "Longitude" : 32.86387
    },
    {
      "Name" : "Our Lady of Mount Carmel Rural",
      "Type" : "Rural/Community Hospital",
      "Region" : "Central",
      "District" : "Mchinji",
      "Latitude" : -13.56199,
      "Longitude" : 33.17369
    },
    {
      "Name" : "St. Joseph  Community Hospital",
      "Type" : "Rural/Community Hospital",
      "Region" : "Central",
      "District" : "Mchinji",
      "Latitude" : -13.75862,
      "Longitude" : 32.99271
    },
    {
      "Name" : "St. Michael-Guillime",
      "Type" : "Rural/Community Hospital",
      "Region" : "Central",
      "District" : "Mchinji",
      "Latitude" : -13.88998,
      "Longitude" : 33.07557
    },
    {
      "Name" : "Alinafe Private Clinic",
      "Type" : "Clinic",
      "Region" : "Central",
      "District" : "Mchinji",
      "Latitude" : -13.83069,
      "Longitude" : 33.04117
    },
    {
      "Name" : "Chabuka Private Clinic",
      "Type" : "Clinic",
      "Region" : "Central",
      "District" : "Mchinji",
      "Latitude" : -13.51775,
      "Longitude" : 32.95893
    },
    {
      "Name" : "BLM Mchinji Clinic",
      "Type" : "Clinic",
      "Region" : "Central",
      "District" : "Mchinji",
      "Latitude" : -13.79508,
      "Longitude" : 32.89221
    },
    {
      "Name" : "Dedza District Hospital",
      "Type" : "District Hospital",
      "Region" : "Central",
      "District" : "Dedza",
      "Latitude" : -14.38596,
      "Longitude" : 34.33547
    },
    {
      "Name" : "Chikuse Health Centre",
      "Type" : "Health Centre",
      "Region" : "Central",
      "District" : "Dedza",
      "Latitude" : -14.15069,
      "Longitude" : 34.31881
    },
    {
      "Name" : "Chimoto Health Centre",
      "Type" : "Health Centre",
      "Region" : "Central",
      "District" : "Dedza",
      "Latitude" : -14.44268,
      "Longitude" : 34.01021
    },
    {
      "Name" : "Chitowo Health Centre",
      "Type" : "Health Centre",
      "Region" : "Central",
      "District" : "Dedza",
      "Latitude" : -14.22584,
      "Longitude" : 34.03961
    },
    {
      "Name" : "Dzindevu Health Centre",
      "Type" : "Health Centre",
      "Region" : "Central",
      "District" : "Dedza",
      "Latitude" : -14.20004,
      "Longitude" : 34.35998
    },
    {
      "Name" : "Golomoti Health Centre",
      "Type" : "Health Centre",
      "Region" : "Central",
      "District" : "Dedza",
      "Latitude" : -14.41303,
      "Longitude" : 34.60092
    },
    {
      "Name" : "Kafere Health Centre",
      "Type" : "Health Centre",
      "Region" : "Central",
      "District" : "Dedza",
      "Latitude" : -14.43168,
      "Longitude" : 33.71746
    },
    {
      "Name" : "Kalulu Health Centre",
      "Type" : "Health Centre",
      "Region" : "Central",
      "District" : "Dedza",
      "Latitude" : -13.99695,
      "Longitude" : 34.153
    },
    {
      "Name" : "Kanyezi Health Centre",
      "Type" : "Health Centre",
      "Region" : "Central",
      "District" : "Dedza",
      "Latitude" : -14.31391,
      "Longitude" : 33.95303
    },
    {
      "Name" : "Kaphuka Health Centre",
      "Type" : "Health Centre",
      "Region" : "Central",
      "District" : "Dedza",
      "Latitude" : -14.16013,
      "Longitude" : 34.19001
    },
    {
      "Name" : "Lobi Health Centre",
      "Type" : "Health Centre",
      "Region" : "Central",
      "District" : "Dedza",
      "Latitude" : -14.39034,
      "Longitude" : 34.07182
    },
    {
      "Name" : "Maonde Health Centre",
      "Type" : "Health Centre",
      "Region" : "Central",
      "District" : "Dedza",
      "Latitude" : -14.4057,
      "Longitude" : 34.11592
    },
    {
      "Name" : "Mayani Health Centre",
      "Type" : "Health Centre",
      "Region" : "Central",
      "District" : "Dedza",
      "Latitude" : -14.096,
      "Longitude" : 34.24281
    },
    {
      "Name" : "Mganja Health Centre",
      "Type" : "Health Centre",
      "Region" : "Central",
      "District" : "Dedza",
      "Latitude" : -14.42048,
      "Longitude" : 34.52305
    },
    {
      "Name" : "Mlangali Health Centre",
      "Type" : "Health Centre",
      "Region" : "Central",
      "District" : "Dedza",
      "Latitude" : -14.41322,
      "Longitude" : 34.27274
    },
    {
      "Name" : "Mphathi Health Centre",
      "Type" : "Health Centre",
      "Region" : "Central",
      "District" : "Dedza",
      "Latitude" : -14.45516,
      "Longitude" : 34.07683
    },
    {
      "Name" : "Mtakataka Health Centre",
      "Type" : "Health Centre",
      "Region" : "Central",
      "District" : "Dedza",
      "Latitude" : -14.22745,
      "Longitude" : 34.51474
    },
    {
      "Name" : "Chongoni College of Forestry D",
      "Type" : "Dispensary",
      "Region" : "Central",
      "District" : "Dedza",
      "Latitude" : -14.311,
      "Longitude" : 34.26677
    },
    {
      "Name" : "Kaname/Mdeza Dispensary",
      "Type" : "Dispensary",
      "Region" : "Central",
      "District" : "Dedza",
      "Latitude" : -14.23517,
      "Longitude" : 33.9677
    },
    {
      "Name" : "Mjini Dispensary",
      "Type" : "Dispensary",
      "Region" : "Central",
      "District" : "Dedza",
      "Latitude" : -14.04457,
      "Longitude" : 34.23867
    },
    {
      "Name" : "Ntakataka Police Dispensary",
      "Type" : "Health Centre",
      "Region" : "Central",
      "District" : "Dedza",
      "Latitude" : -14.22581,
      "Longitude" : 34.51119
    },
    {
      "Name" : "Tsoyo Dispensary",
      "Type" : "Dispensary",
      "Region" : "Central",
      "District" : "Dedza",
      "Latitude" : -14.08098,
      "Longitude" : 34.16138
    },
    {
      "Name" : "Mua Rural Hospital",
      "Type" : "Rural/Community Hospital",
      "Region" : "Central",
      "District" : "Dedza",
      "Latitude" : -14.28307,
      "Longitude" : 34.502
    },
    {
      "Name" : "Bembeke Health Centre",
      "Type" : "Health Centre",
      "Region" : "Central",
      "District" : "Dedza",
      "Latitude" : -14.35825,
      "Longitude" : 34.42432
    },
    {
      "Name" : "Kanyama Health Centre",
      "Type" : "Health Centre",
      "Region" : "Central",
      "District" : "Dedza",
      "Latitude" : -14.24015,
      "Longitude" : 34.32356
    },
    {
      "Name" : "Kasina Health Centre",
      "Type" : "Health Centre",
      "Region" : "Central",
      "District" : "Dedza",
      "Latitude" : -14.143,
      "Longitude" : 34.13183
    },
    {
      "Name" : "Kaundu Health Centre",
      "Type" : "Health Centre",
      "Region" : "Central",
      "District" : "Dedza",
      "Latitude" : -14.29368,
      "Longitude" : 34.62839
    },
    {
      "Name" : "Matumba Health Centre",
      "Type" : "Health Centre",
      "Region" : "Central",
      "District" : "Dedza",
      "Latitude" : -14.37283,
      "Longitude" : 33.90594
    },
    {
      "Name" : "Mikondo Health Centre",
      "Type" : "Health Centre",
      "Region" : "Central",
      "District" : "Dedza",
      "Latitude" : -14.44767,
      "Longitude" : 33.93951
    },
    {
      "Name" : "Mphunzi Health Centre",
      "Type" : "Health Centre",
      "Region" : "Central",
      "District" : "Dedza",
      "Latitude" : -14.37933,
      "Longitude" : 34.17539
    },
    {
      "Name" : "Mtendere Health Centre",
      "Type" : "Rural/Community Hospital",
      "Region" : "Central",
      "District" : "Dedza",
      "Latitude" : -14.32271,
      "Longitude" : 34.09373
    },
    {
      "Name" : "Nakalanzi Health Centre",
      "Type" : "Health Centre",
      "Region" : "Central",
      "District" : "Dedza",
      "Latitude" : -14.20233,
      "Longitude" : 34.54819
    },
    {
      "Name" : "Chiphwanya Health Centre (St.",
      "Type" : "Health Centre",
      "Region" : "Central",
      "District" : "Dedza",
      "Latitude" : -14.07547,
      "Longitude" : 34.2536
    },
    {
      "Name" : "Tiyese Maternity Clinic",
      "Type" : "Maternity",
      "Region" : "Central",
      "District" : "Dedza",
      "Latitude" : -14.29613,
      "Longitude" : 34.16295
    },
    {
      "Name" : "Chizimba, Richard M. Vizimba P",
      "Type" : "Clinic",
      "Region" : "Central",
      "District" : "Dedza",
      "Latitude" : -14.37657,
      "Longitude" : 34.33303
    },
    {
      "Name" : "Phuma, Damiano A. F. Tanyaze P",
      "Type" : "Clinic",
      "Region" : "Central",
      "District" : "Dedza",
      "Latitude" : -14.30778,
      "Longitude" : 34.08123
    },
    {
      "Name" : "Dedza BLM",
      "Type" : "Clinic",
      "Region" : "Central",
      "District" : "Dedza",
      "Latitude" : -14.37625,
      "Longitude" : 34.33035
    },
    {
      "Name" : "Ntcheu District Hospital",
      "Type" : "District Hospital",
      "Region" : "Central",
      "District" : "Ntcheu",
      "Latitude" : -14.81698,
      "Longitude" : 34.63823
    },
    {
      "Name" : "Bilila Health Centre",
      "Type" : "Health Centre",
      "Region" : "Central",
      "District" : "Ntcheu",
      "Latitude" : -14.82489,
      "Longitude" : 34.85134
    },
    {
      "Name" : "Biliwiri Health Cnetre",
      "Type" : "Health Centre",
      "Region" : "Central",
      "District" : "Ntcheu",
      "Latitude" : -14.817,
      "Longitude" : 34.638306
    },
    {
      "Name" : "Bwanje Health Centre",
      "Type" : "Health Centre",
      "Region" : "Central",
      "District" : "Ntcheu",
      "Latitude" : -14.64857,
      "Longitude" : 34.77445
    },
    {
      "Name" : "Chikande Health Centre",
      "Type" : "Health Centre",
      "Region" : "Central",
      "District" : "Ntcheu",
      "Latitude" : -14.77261,
      "Longitude" : 34.90768
    },
    {
      "Name" : "Doviko Health Centre",
      "Type" : "Health Centre",
      "Region" : "Central",
      "District" : "Ntcheu",
      "Latitude" : -15.0822,
      "Longitude" : 34.59094
    },
    {
      "Name" : "Dzunje Health Centre",
      "Type" : "Health Centre",
      "Region" : "Central",
      "District" : "Ntcheu",
      "Latitude" : -14.80787,
      "Longitude" : 34.73608
    },
    {
      "Name" : "Kampanje Health Centre",
      "Type" : "Health Post",
      "Region" : "Central",
      "District" : "Ntcheu",
      "Latitude" : -14.59947,
      "Longitude" : 34.58684
    },
    {
      "Name" : "Kandeu Health Centre",
      "Type" : "Health Centre",
      "Region" : "Central",
      "District" : "Ntcheu",
      "Latitude" : -14.60262,
      "Longitude" : 34.61621
    },
    {
      "Name" : "Kapeni Health Centre",
      "Type" : "Health Centre",
      "Region" : "Central",
      "District" : "Ntcheu",
      "Latitude" : -15.00511,
      "Longitude" : 34.77059
    },
    {
      "Name" : "Kasinje Health Centre",
      "Type" : "Health Centre",
      "Region" : "Central",
      "District" : "Ntcheu",
      "Latitude" : -14.52315,
      "Longitude" : 34.67642
    },
    {
      "Name" : "Katsekera Health Centre",
      "Type" : "Health Centre",
      "Region" : "Central",
      "District" : "Ntcheu",
      "Latitude" : -15.03336,
      "Longitude" : 34.64072
    },
    {
      "Name" : "Lizulu Health Centre",
      "Type" : "Health Centre",
      "Region" : "Central",
      "District" : "Ntcheu",
      "Latitude" : -14.51775,
      "Longitude" : 34.46547
    },
    {
      "Name" : "Manjawira Health Centre",
      "Type" : "Health Centre",
      "Region" : "Central",
      "District" : "Ntcheu",
      "Latitude" : -15.00254,
      "Longitude" : 34.85709
    },
    {
      "Name" : "Mlangeni Health Centre",
      "Type" : "Health Centre",
      "Region" : "Central",
      "District" : "Ntcheu",
      "Latitude" : -14.67662,
      "Longitude" : 34.53672
    },
    {
      "Name" : "Nsiyaludzu Health Centre",
      "Type" : "Health Centre",
      "Region" : "Central",
      "District" : "Ntcheu",
      "Latitude" : -14.93648,
      "Longitude" : 34.87425
    },
    {
      "Name" : "Dzonzi Mvai Dispensary",
      "Type" : "Dispensary",
      "Region" : "Central",
      "District" : "Ntcheu",
      "Latitude" : -14.94827,
      "Longitude" : 34.64306
    },
    {
      "Name" : "Masasa Dispensary",
      "Type" : "Dispensary",
      "Region" : "Central",
      "District" : "Ntcheu",
      "Latitude" : -14.4334,
      "Longitude" : 34.42243
    },
    {
      "Name" : "Mphepozinayi Dispensary",
      "Type" : "Dispensary",
      "Region" : "Central",
      "District" : "Ntcheu",
      "Latitude" : -14.73586,
      "Longitude" : 34.66115
    },
    {
      "Name" : "Namisu Dispensary",
      "Type" : "Dispensary",
      "Region" : "Central",
      "District" : "Ntcheu",
      "Latitude" : -15.08352,
      "Longitude" : 34.78138
    },
    {
      "Name" : "Phanga Dispensary",
      "Type" : "Dispensary",
      "Region" : "Central",
      "District" : "Ntcheu",
      "Latitude" : -14.34498,
      "Longitude" : 34.72016
    },
    {
      "Name" : "Sr. Tereza Rural Hospital",
      "Type" : "Rural/Community Hospital",
      "Region" : "Central",
      "District" : "Ntcheu",
      "Latitude" : -14.99902,
      "Longitude" : 34.82815
    },
    {
      "Name" : "Chigodi Health Centre",
      "Type" : "Health Centre",
      "Region" : "Central",
      "District" : "Ntcheu",
      "Latitude" : -14.49194,
      "Longitude" : 34.54126
    },
    {
      "Name" : "Ganya Health Centre",
      "Type" : "Health Centre",
      "Region" : "Central",
      "District" : "Ntcheu",
      "Latitude" : -14.60964,
      "Longitude" : 34.61808
    },
    {
      "Name" : "Gowa Health Centre",
      "Type" : "Health Centre",
      "Region" : "Central",
      "District" : "Ntcheu",
      "Latitude" : -14.69906,
      "Longitude" : 34.59001
    },
    {
      "Name" : "Lake View Health Centre",
      "Type" : "Health Centre",
      "Region" : "Central",
      "District" : "Ntcheu",
      "Latitude" : -14.64251,
      "Longitude" : 34.55371
    },
    {
      "Name" : "Matanda Health Centre",
      "Type" : "Health Centre",
      "Region" : "Central",
      "District" : "Ntcheu",
      "Latitude" : -15.10516,
      "Longitude" : 34.66845
    },
    {
      "Name" : "Mlanda Health Centre",
      "Type" : "Health Centre",
      "Region" : "Central",
      "District" : "Ntcheu",
      "Latitude" : -14.47886,
      "Longitude" : 34.45988
    },
    {
      "Name" : "Mtonda Health Centre",
      "Type" : "Health Centre",
      "Region" : "Central",
      "District" : "Ntcheu",
      "Latitude" : -15.02,
      "Longitude" : 34.75144
    },
    {
      "Name" : "Mzama Health Centre",
      "Type" : "Health Centre",
      "Region" : "Central",
      "District" : "Ntcheu",
      "Latitude" : -14.89375,
      "Longitude" : 34.585
    },
    {
      "Name" : "Nsipe Health Centre",
      "Type" : "Health Centre",
      "Region" : "Central",
      "District" : "Ntcheu",
      "Latitude" : -14.86434,
      "Longitude" : 34.75233
    },
    {
      "Name" : "Senzani Health Centre",
      "Type" : "Health Centre",
      "Region" : "Central",
      "District" : "Ntcheu",
      "Latitude" : -15.07865,
      "Longitude" : 34.85783
    },
    {
      "Name" : "Sharpe Valley Health Centre",
      "Type" : "Health Centre",
      "Region" : "Central",
      "District" : "Ntcheu",
      "Latitude" : -14.61103,
      "Longitude" : 34.7369
    },
    {
      "Name" : "Tsangano Health Centre",
      "Type" : "Health Centre",
      "Region" : "Central",
      "District" : "Ntcheu",
      "Latitude" : -15.17401,
      "Longitude" : 34.61117
    },
    {
      "Name" : "Mluma Dispensary",
      "Type" : "Dispensary",
      "Region" : "Central",
      "District" : "Ntcheu",
      "Latitude" : -14.71894,
      "Longitude" : 34.6355
    },
    {
      "Name" : "Chiole Clinic",
      "Type" : "Clinic",
      "Region" : "Central",
      "District" : "Ntcheu",
      "Latitude" : -14.743,
      "Longitude" : 34.64265
    },
    {
      "Name" : "Chiwambo, Kinwell JBT Kanandi",
      "Type" : "Clinic",
      "Region" : "Central",
      "District" : "Ntcheu",
      "Latitude" : -14.7772,
      "Longitude" : 34.56924
    },
    {
      "Name" : "Lipande, MacDonald. Tachira Bi",
      "Type" : "Clinic",
      "Region" : "Central",
      "District" : "Ntcheu",
      "Latitude" : -14.65106,
      "Longitude" : 34.5566
    },
    {
      "Name" : "Pasulani, Emerson E. Chilitsen",
      "Type" : "Clinic",
      "Region" : "Central",
      "District" : "Ntcheu",
      "Latitude" : -14.81517,
      "Longitude" : 34.64374
    },
    {
      "Name" : "Solomon Village Clinic",
      "Type" : "Clinic",
      "Region" : "Central",
      "District" : "Ntcheu",
      "Latitude" : -14.70821,
      "Longitude" : 34.87077
    },
    {
      "Name" : "BLM Ntcheu Clinic",
      "Type" : "Clinic",
      "Region" : "Central",
      "District" : "Ntcheu",
      "Latitude" : -14.81394,
      "Longitude" : 34.63512
    },
    {
      "Name" : "Ntcheu FPAM Clinic",
      "Type" : "Clinic",
      "Region" : "Central",
      "District" : "Ntcheu",
      "Latitude" : -14.80935,
      "Longitude" : 34.62561
    },
    {
      "Name" : "Mangochi District Hospital",
      "Type" : "District Hospital",
      "Region" : "South",
      "District" : "Mangochi",
      "Latitude" : -14.48191,
      "Longitude" : 35.26527
    },
    {
      "Name" : "Monkeybay Community Hospital",
      "Type" : "Rural/Community Hospital",
      "Region" : "South",
      "District" : "Mangochi",
      "Latitude" : -14.08468,
      "Longitude" : 34.91104
    },
    {
      "Name" : "Namwera Health Centre",
      "Type" : "Rural/Community Hospital",
      "Region" : "South",
      "District" : "Mangochi",
      "Latitude" : -14.3637,
      "Longitude" : 35.50221
    },
    {
      "Name" : "Chikole Dispensary",
      "Type" : "Health Centre",
      "Region" : "South",
      "District" : "Mangochi",
      "Latitude" : -14.422,
      "Longitude" : 35.38427
    },
    {
      "Name" : "Chilipa Health Centre",
      "Type" : "Health Centre",
      "Region" : "South",
      "District" : "Mangochi",
      "Latitude" : -14.6996,
      "Longitude" : 34.32
    },
    {
      "Name" : "Chilonga Health care",
      "Type" : "Health Centre",
      "Region" : "South",
      "District" : "Mangochi",
      "Latitude" : -14.46684,
      "Longitude" : 34.87
    },
    {
      "Name" : "Chiumbangame Health Centre",
      "Type" : "Dispensary",
      "Region" : "South",
      "District" : "Mangochi",
      "Latitude" : -14.31739,
      "Longitude" : 35.55721
    },
    {
      "Name" : "Jalasi Health Centre",
      "Type" : "Health Centre",
      "Region" : "South",
      "District" : "Mangochi",
      "Latitude" : -14.36298,
      "Longitude" : 35.44253
    },
    {
      "Name" : "Katuli Health Centre",
      "Type" : "Health Centre",
      "Region" : "South",
      "District" : "Mangochi",
      "Latitude" : -14.17962,
      "Longitude" : 35.44476
    },
    {
      "Name" : "Lungwena Health Centre",
      "Type" : "Health Centre",
      "Region" : "South",
      "District" : "Mangochi",
      "Latitude" : -14.24501,
      "Longitude" : 35.24804
    },
    {
      "Name" : "Makanjira Health Centre",
      "Type" : "Health Centre",
      "Region" : "South",
      "District" : "Mangochi",
      "Latitude" : -13.71591,
      "Longitude" : 35.04704
    },
    {
      "Name" : "Malukula Health Centre",
      "Type" : "Health Centre",
      "Region" : "South",
      "District" : "Mangochi",
      "Latitude" : -14.44362,
      "Longitude" : 35.35582
    },
    {
      "Name" : "Mkumba Health Centre",
      "Type" : "Health Centre",
      "Region" : "South",
      "District" : "Mangochi",
      "Latitude" : -14.5946,
      "Longitude" : 35.52517
    },
    {
      "Name" : "Mtimabi Health Centre",
      "Type" : "Health Centre",
      "Region" : "South",
      "District" : "Mangochi",
      "Latitude" : -14.61111,
      "Longitude" : 35.08273
    },
    {
      "Name" : "Nancholi Dispensary",
      "Type" : "Dispensary",
      "Region" : "South",
      "District" : "Mangochi",
      "Latitude" : -14.47803,
      "Longitude" : 35.58667
    },
    {
      "Name" : "Nangalamu Health Centre",
      "Type" : "Health Centre",
      "Region" : "South",
      "District" : "Mangochi",
      "Latitude" : -14.48148,
      "Longitude" : 35.67288
    },
    {
      "Name" : "Nankumba Health Centre",
      "Type" : "Health Centre",
      "Region" : "South",
      "District" : "Mangochi",
      "Latitude" : -14.36521,
      "Longitude" : 34.82361
    },
    {
      "Name" : "Phirilongwe Health Centre",
      "Type" : "Health Centre",
      "Region" : "South",
      "District" : "Mangochi",
      "Latitude" : -14.58847,
      "Longitude" : 34.89938
    },
    {
      "Name" : "Chiponde Dispensary",
      "Type" : "Dispensary",
      "Region" : "South",
      "District" : "Mangochi",
      "Latitude" : -14.37341,
      "Longitude" : 35.6017
    },
    {
      "Name" : "Chiunda Dispensary",
      "Type" : "Dispensary",
      "Region" : "South",
      "District" : "Mangochi",
      "Latitude" : -14.77744,
      "Longitude" : 35.43901
    },
    {
      "Name" : "Iba Dispensary",
      "Type" : "Dispensary",
      "Region" : "South",
      "District" : "Mangochi",
      "Latitude" : -14.30711,
      "Longitude" : 35.307
    },
    {
      "Name" : "Kadango Dispensary",
      "Type" : "Dispensary",
      "Region" : "South",
      "District" : "Mangochi",
      "Latitude" : -14.06223,
      "Longitude" : 35.18629
    },
    {
      "Name" : "Kukalanga Dispensary",
      "Type" : "Dispensary",
      "Region" : "South",
      "District" : "Mangochi",
      "Latitude" : -14.63744,
      "Longitude" : 35.18031
    },
    {
      "Name" : "Maleta",
      "Type" : "Health Post",
      "Region" : "South",
      "District" : "Mangochi",
      "Latitude" : -13.92942,
      "Longitude" : 35.26355
    },
    {
      "Name" : "Malombe Dispensary",
      "Type" : "Dispensary",
      "Region" : "South",
      "District" : "Mangochi",
      "Latitude" : -14.6305,
      "Longitude" : 35.34912
    },
    {
      "Name" : "Sinyala Dispensary",
      "Type" : "Dispensary",
      "Region" : "South",
      "District" : "Mangochi",
      "Latitude" : -14.58386,
      "Longitude" : 35.57626
    },
    {
      "Name" : "Maldeco Fisheries Clinic",
      "Type" : "Clinic",
      "Region" : "South",
      "District" : "Mangochi",
      "Latitude" : -14.3335,
      "Longitude" : 35.1492
    },
    {
      "Name" : "Ngala Health Post",
      "Type" : "Health Post",
      "Region" : "South",
      "District" : "Mangochi",
      "Latitude" : -14.65773,
      "Longitude" : 35.07712
    },
    {
      "Name" : "Mulibwanji Hospital",
      "Type" : "Rural/Community Hospital",
      "Region" : "South",
      "District" : "Mangochi",
      "Latitude" : -14.51145,
      "Longitude" : 35.587
    },
    {
      "Name" : "St. Martins Mission Hospital",
      "Type" : "Rural/Community Hospital",
      "Region" : "South",
      "District" : "Mangochi",
      "Latitude" : -14.34759,
      "Longitude" : 35.29375
    },
    {
      "Name" : "Kapire Health Centre",
      "Type" : "Health Centre",
      "Region" : "South",
      "District" : "Mangochi",
      "Latitude" : -14.78576,
      "Longitude" : 34.99945
    },
    {
      "Name" : "Katema Health Centre",
      "Type" : "Health Centre",
      "Region" : "South",
      "District" : "Mangochi",
      "Latitude" : -14.52563,
      "Longitude" : 35.03761
    },
    {
      "Name" : "Koche Health Centre",
      "Type" : "Health Centre",
      "Region" : "South",
      "District" : "Mangochi",
      "Latitude" : -14.33343,
      "Longitude" : 35.14335
    },
    {
      "Name" : "Lugola Health Centre",
      "Type" : "Health Centre",
      "Region" : "South",
      "District" : "Mangochi",
      "Latitude" : -13.96144,
      "Longitude" : 35.14285
    },
    {
      "Name" : "Lulanga Health Centre",
      "Type" : "Health Centre",
      "Region" : "South",
      "District" : "Mangochi",
      "Latitude" : -13.68744,
      "Longitude" : 34.91742
    },
    {
      "Name" : "Luwalika Health Centre",
      "Type" : "Health Centre",
      "Region" : "South",
      "District" : "Mangochi",
      "Latitude" : -14.237,
      "Longitude" : 35.46952
    },
    {
      "Name" : "Malembo Health Centre",
      "Type" : "Health Centre",
      "Region" : "South",
      "District" : "Mangochi",
      "Latitude" : -14.23628,
      "Longitude" : 34.82524
    },
    {
      "Name" : "Mase Health Centre",
      "Type" : "Health Centre",
      "Region" : "South",
      "District" : "Mangochi",
      "Latitude" : -14.58096,
      "Longitude" : 35.36386
    },
    {
      "Name" : "Mpondasi Health Centre",
      "Type" : "Health Centre",
      "Region" : "South",
      "District" : "Mangochi",
      "Latitude" : -14.45347,
      "Longitude" : 35.24387
    },
    {
      "Name" : "Namalaka Health Centre",
      "Type" : "Health Centre",
      "Region" : "South",
      "District" : "Mangochi",
      "Latitude" : -14.12384,
      "Longitude" : 35.19301
    },
    {
      "Name" : "Nankhwali Health Centre",
      "Type" : "Health Centre",
      "Region" : "South",
      "District" : "Mangochi",
      "Latitude" : -14.1351,
      "Longitude" : 34.84488
    },
    {
      "Name" : "Nkope Health Centre",
      "Type" : "Health Centre",
      "Region" : "South",
      "District" : "Mangochi",
      "Latitude" : -14.133,
      "Longitude" : 35.03944
    },
    {
      "Name" : "Sister Martha Health Centre",
      "Type" : "Health Centre",
      "Region" : "South",
      "District" : "Mangochi",
      "Latitude" : -14.38531,
      "Longitude" : 35.53555
    },
    {
      "Name" : "Umodzi Clinic",
      "Type" : "Clinic",
      "Region" : "South",
      "District" : "Mangochi",
      "Latitude" : -14.47692,
      "Longitude" : 35.2643
    },
    {
      "Name" : "Assalam Clinic",
      "Type" : "Clinic",
      "Region" : "South",
      "District" : "Mangochi",
      "Latitude" : -14.54537,
      "Longitude" : 35.19221
    },
    {
      "Name" : "Kanyerere, Stuart. Stuka Priva",
      "Type" : "Clinic",
      "Region" : "South",
      "District" : "Mangochi",
      "Latitude" : -14.48245,
      "Longitude" : 35.26128
    },
    {
      "Name" : "Kayumba, Jerome. Tulame Privat",
      "Type" : "Clinic",
      "Region" : "South",
      "District" : "Mangochi",
      "Latitude" : -14.69346,
      "Longitude" : 35.177
    },
    {
      "Name" : "Mama Khadija Private Clinic Na",
      "Type" : "Clinic",
      "Region" : "South",
      "District" : "Mangochi",
      "Latitude" : -14.3708,
      "Longitude" : 35.49405
    },
    {
      "Name" : "Perekamoyo, William D. Mphatso",
      "Type" : "Clinic",
      "Region" : "South",
      "District" : "Mangochi",
      "Latitude" : -14.08575,
      "Longitude" : 34.91427
    },
    {
      "Name" : "Kapire Dream Centre",
      "Type" : "Clinic",
      "Region" : "South",
      "District" : "Mangochi",
      "Latitude" : -14.786,
      "Longitude" : 34.99902
    },
    {
      "Name" : "Billy Riordan Memorial Health",
      "Type" : "Clinic",
      "Region" : "South",
      "District" : "Mangochi",
      "Latitude" : -14.03205,
      "Longitude" : 34.84044
    },
    {
      "Name" : "Mangochi BLM",
      "Type" : "Clinic",
      "Region" : "South",
      "District" : "Mangochi",
      "Latitude" : -14.48185,
      "Longitude" : 35.26157
    },
    {
      "Name" : "Machinga District Hospital",
      "Type" : "District Hospital",
      "Region" : "South",
      "District" : "Machinga",
      "Latitude" : -15.06229,
      "Longitude" : 35.2263
    },
    {
      "Name" : "Chikweo Health Centre",
      "Type" : "Health Centre",
      "Region" : "South",
      "District" : "Machinga",
      "Latitude" : -14.7655,
      "Longitude" : 35.66691
    },
    {
      "Name" : "Machinga Health Centre",
      "Type" : "Health Centre",
      "Region" : "South",
      "District" : "Machinga",
      "Latitude" : -15.1773,
      "Longitude" : 35.29565
    },
    {
      "Name" : "Mangamba Health Centre",
      "Type" : "Health Centre",
      "Region" : "South",
      "District" : "Machinga",
      "Latitude" : -14.79145,
      "Longitude" : 35.43652
    },
    {
      "Name" : "Mkwepere Health Centre",
      "Type" : "Health Centre",
      "Region" : "South",
      "District" : "Machinga",
      "Latitude" : -14.60286,
      "Longitude" : 35.63635
    },
    {
      "Name" : "Namanja Health Centre",
      "Type" : "Health Centre",
      "Region" : "South",
      "District" : "Machinga",
      "Latitude" : -14.96543,
      "Longitude" : 35.67994
    },
    {
      "Name" : "Nayinunje Health Centre",
      "Type" : "Health Centre",
      "Region" : "South",
      "District" : "Machinga",
      "Latitude" : -14.7406,
      "Longitude" : 35.56503
    },
    {
      "Name" : "Nayuchi Health Centre",
      "Type" : "Health Centre",
      "Region" : "South",
      "District" : "Machinga",
      "Latitude" : -14.585,
      "Longitude" : 35.86726
    },
    {
      "Name" : "Ngokwe Health Centre",
      "Type" : "Health Centre",
      "Region" : "South",
      "District" : "Machinga",
      "Latitude" : -14.70706,
      "Longitude" : 35.80177
    },
    {
      "Name" : "Ntaja Health Centre",
      "Type" : "Health Centre",
      "Region" : "South",
      "District" : "Machinga",
      "Latitude" : -14.86828,
      "Longitude" : 35.52911
    },
    {
      "Name" : "Nyambi Health Centre",
      "Type" : "Health Centre",
      "Region" : "South",
      "District" : "Machinga",
      "Latitude" : -14.68999,
      "Longitude" : 35.57257
    },
    {
      "Name" : "Chamba Dispensary",
      "Type" : "Dispensary",
      "Region" : "South",
      "District" : "Machinga",
      "Latitude" : -15.20234,
      "Longitude" : 35.42137
    },
    {
      "Name" : "Kawinga Dispensary",
      "Type" : "Dispensary",
      "Region" : "South",
      "District" : "Machinga",
      "Latitude" : -14.85468,
      "Longitude" : 35.57198
    },
    {
      "Name" : "Mbonechela Dispensary",
      "Type" : "Dispensary",
      "Region" : "South",
      "District" : "Machinga",
      "Latitude" : -14.88932,
      "Longitude" : 35.47818
    },
    {
      "Name" : "Mlomba Dispensary",
      "Type" : "Dispensary",
      "Region" : "South",
      "District" : "Machinga",
      "Latitude" : -15.01903,
      "Longitude" : 35.47708
    },
    {
      "Name" : "Gawanani Health Centre",
      "Type" : "Health Centre",
      "Region" : "South",
      "District" : "Machinga",
      "Latitude" : -15.2238,
      "Longitude" : 35.20293
    },
    {
      "Name" : "Mpiri Health Centre",
      "Type" : "Health Centre",
      "Region" : "South",
      "District" : "Machinga",
      "Latitude" : -14.77192,
      "Longitude" : 35.60801
    },
    {
      "Name" : "Mposa Health Centre",
      "Type" : "Health Centre",
      "Region" : "South",
      "District" : "Machinga",
      "Latitude" : -15.14906,
      "Longitude" : 35.51849
    },
    {
      "Name" : "Namandanje Health Centre",
      "Type" : "Health Centre",
      "Region" : "South",
      "District" : "Machinga",
      "Latitude" : -14.88211,
      "Longitude" : 35.48324
    },
    {
      "Name" : "Nsanama Health Centre",
      "Type" : "Health Centre",
      "Region" : "South",
      "District" : "Machinga",
      "Latitude" : -14.99491,
      "Longitude" : 35.49477
    },
    {
      "Name" : "Nthorowa Health Centre",
      "Type" : "Health Centre",
      "Region" : "South",
      "District" : "Machinga",
      "Latitude" : -14.99492,
      "Longitude" : 35.57325
    },
    {
      "Name" : "Lifune Maternity",
      "Type" : "Maternity",
      "Region" : "South",
      "District" : "Machinga",
      "Latitude" : -14.69513,
      "Longitude" : 35.70615
    },
    {
      "Name" : "Liwonde Medical Clinic, Chilik",
      "Type" : "Other Hospital",
      "Region" : "South",
      "District" : "Machinga",
      "Latitude" : -15.06782,
      "Longitude" : 35.22473
    },
    {
      "Name" : "Khonje, Anaclate P, Twapochele",
      "Type" : "Clinic",
      "Region" : "South",
      "District" : "Machinga",
      "Latitude" : -14.99535,
      "Longitude" : 35.49268
    },
    {
      "Name" : "Machinga Private Clinic",
      "Type" : "Clinic",
      "Region" : "South",
      "District" : "Machinga",
      "Latitude" : -14.87401,
      "Longitude" : 35.52903
    },
    {
      "Name" : "Madalitso Private Clinic",
      "Type" : "Clinic",
      "Region" : "South",
      "District" : "Machinga",
      "Latitude" : -14.99319,
      "Longitude" : 35.49219
    },
    {
      "Name" : "Malingamoyo Private Clinic",
      "Type" : "Clinic",
      "Region" : "South",
      "District" : "Machinga",
      "Latitude" : -14.87031,
      "Longitude" : 35.5294
    },
    {
      "Name" : "Umoyo Private Clinic",
      "Type" : "Clinic",
      "Region" : "South",
      "District" : "Machinga",
      "Latitude" : -14.99987,
      "Longitude" : 35.49031
    },
    {
      "Name" : "BLM Liwonde Clinic",
      "Type" : "Clinic",
      "Region" : "South",
      "District" : "Machinga",
      "Latitude" : -15.0694,
      "Longitude" : 35.22766
    },
    {
      "Name" : "Zomba Central Hospital",
      "Type" : "Central Hospital",
      "Region" : "South",
      "District" : "Zomba",
      "Latitude" : -15.3994,
      "Longitude" : 35.31378
    },
    {
      "Name" : "Domasi Rural Hospital",
      "Type" : "Rural/Community Hospital",
      "Region" : "South",
      "District" : "Zomba",
      "Latitude" : -15.28099,
      "Longitude" : 35.39935
    },
    {
      "Name" : "Police College Hospital",
      "Type" : "Other Hospital",
      "Region" : "South",
      "District" : "Zomba",
      "Latitude" : -15.39112,
      "Longitude" : 35.32685
    },
    {
      "Name" : "Bimbi Health Centre",
      "Type" : "Health Centre",
      "Region" : "South",
      "District" : "Zomba",
      "Latitude" : -15.30876,
      "Longitude" : 35.4794
    },
    {
      "Name" : "Chamba Health Centre",
      "Type" : "Health Centre",
      "Region" : "South",
      "District" : "Zomba",
      "Latitude" : -15.46571,
      "Longitude" : 35.51662
    },
    {
      "Name" : "Chingale Health Centre",
      "Type" : "Health Centre",
      "Region" : "South",
      "District" : "Zomba",
      "Latitude" : -15.39694,
      "Longitude" : 35.1808
    },
    {
      "Name" : "Chisi Island",
      "Type" : "Health Centre",
      "Region" : "South",
      "District" : "Zomba",
      "Latitude" : -15.32562,
      "Longitude" : 35.60506
    },
    {
      "Name" : "Lambulira Health Centre",
      "Type" : "Health Centre",
      "Region" : "South",
      "District" : "Zomba",
      "Latitude" : -15.4841,
      "Longitude" : 35.337
    },
    {
      "Name" : "Likangala Health Centre",
      "Type" : "Health Centre",
      "Region" : "South",
      "District" : "Zomba",
      "Latitude" : -15.42787,
      "Longitude" : 35.54461
    },
    {
      "Name" : "Machinjiri Health Centre",
      "Type" : "Health Centre",
      "Region" : "South",
      "District" : "Zomba",
      "Latitude" : -15.23666,
      "Longitude" : 35.41707
    },
    {
      "Name" : "Magomero Health Centre",
      "Type" : "Health Centre",
      "Region" : "South",
      "District" : "Zomba",
      "Latitude" : -15.56147,
      "Longitude" : 35.26101
    },
    {
      "Name" : "Makwapala Health Centre",
      "Type" : "Health Centre",
      "Region" : "South",
      "District" : "Zomba",
      "Latitude" : -15.36938,
      "Longitude" : 35.4506
    },
    {
      "Name" : "Matawale Health Centre",
      "Type" : "Health Centre",
      "Region" : "South",
      "District" : "Zomba",
      "Latitude" : -15.39029,
      "Longitude" : 35.35958
    },
    {
      "Name" : "M'mambo Health Centre",
      "Type" : "Health Centre",
      "Region" : "South",
      "District" : "Zomba",
      "Latitude" : -15.26264,
      "Longitude" : 35.15945
    },
    {
      "Name" : "Naisi Health Centre",
      "Type" : "Health Centre",
      "Region" : "South",
      "District" : "Zomba",
      "Latitude" : -15.35785,
      "Longitude" : 35.3849
    },
    {
      "Name" : "Namadidi Health Centre",
      "Type" : "Health Centre",
      "Region" : "South",
      "District" : "Zomba",
      "Latitude" : -15.41079,
      "Longitude" : 35.24736
    },
    {
      "Name" : "Namasalima Health Centre",
      "Type" : "Health Centre",
      "Region" : "South",
      "District" : "Zomba",
      "Latitude" : -15.23142,
      "Longitude" : 35.48876
    },
    {
      "Name" : "Nasawa Health Centre",
      "Type" : "Health Centre",
      "Region" : "South",
      "District" : "Zomba",
      "Latitude" : -15.6023,
      "Longitude" : 35.25956
    },
    {
      "Name" : "Ngwelelo Health Centre",
      "Type" : "Health Centre",
      "Region" : "South",
      "District" : "Zomba",
      "Latitude" : -15.66645,
      "Longitude" : 35.42718
    },
    {
      "Name" : "Sadzi Health Centre",
      "Type" : "Health Centre",
      "Region" : "South",
      "District" : "Zomba",
      "Latitude" : -15.40882,
      "Longitude" : 35.31969
    },
    {
      "Name" : "Thondwe Health Centre",
      "Type" : "Health Centre",
      "Region" : "South",
      "District" : "Zomba",
      "Latitude" : -15.48458,
      "Longitude" : 35.23696
    },
    {
      "Name" : "Zilindo Health Centre",
      "Type" : "Health Centre",
      "Region" : "South",
      "District" : "Zomba",
      "Latitude" : -15.3805,
      "Longitude" : 35.3013
    },
    {
      "Name" : "Airwing Dispensary",
      "Type" : "Dispensary",
      "Region" : "South",
      "District" : "Zomba",
      "Latitude" : -15.38876,
      "Longitude" : 35.38508
    },
    {
      "Name" : "City Clinic Zomba",
      "Type" : "Clinic",
      "Region" : "South",
      "District" : "Zomba",
      "Latitude" : -15.39072,
      "Longitude" : 35.32416
    },
    {
      "Name" : "Changalume Barracks",
      "Type" : "Health Centre",
      "Region" : "South",
      "District" : "Zomba",
      "Latitude" : -15.3896,
      "Longitude" : 35.21184
    },
    {
      "Name" : "Cobbe Barracks",
      "Type" : "Other Hospital",
      "Region" : "South",
      "District" : "Zomba",
      "Latitude" : -15.39094,
      "Longitude" : 35.30534
    },
    {
      "Name" : "Mikuyu",
      "Type" : "Clinic",
      "Region" : "South",
      "District" : "Zomba",
      "Latitude" : -15.41764,
      "Longitude" : 35.41968
    },
    {
      "Name" : "Pirimiti Rural Hospital",
      "Type" : "Rural/Community Hospital",
      "Region" : "South",
      "District" : "Zomba",
      "Latitude" : -15.48302,
      "Longitude" : 35.45048
    },
    {
      "Name" : "St. Lukes Mission Hospital",
      "Type" : "Rural/Community Hospital",
      "Region" : "South",
      "District" : "Zomba",
      "Latitude" : -15.20914,
      "Longitude" : 35.35291
    },
    {
      "Name" : "Chilipa Health Centre",
      "Type" : "Health Centre",
      "Region" : "South",
      "District" : "Zomba",
      "Latitude" : -15.32447,
      "Longitude" : 35.11715
    },
    {
      "Name" : "Chipini Health Centre",
      "Type" : "Health Centre",
      "Region" : "South",
      "District" : "Zomba",
      "Latitude" : -15.39007,
      "Longitude" : 35.09531
    },
    {
      "Name" : "Matiya Health Centre",
      "Type" : "Health Centre",
      "Region" : "South",
      "District" : "Zomba",
      "Latitude" : -15.53371,
      "Longitude" : 35.5478
    },
    {
      "Name" : "Mayaka Health Centre",
      "Type" : "Health Centre",
      "Region" : "South",
      "District" : "Zomba",
      "Latitude" : -15.57355,
      "Longitude" : 35.3728
    },
    {
      "Name" : "Nkasala Health Centre",
      "Type" : "Health Centre",
      "Region" : "South",
      "District" : "Zomba",
      "Latitude" : -15.32778,
      "Longitude" : 35.21661
    },
    {
      "Name" : "Thondwe Pastoral Centre",
      "Type" : "Health Centre",
      "Region" : "South",
      "District" : "Zomba",
      "Latitude" : -15.49429,
      "Longitude" : 35.21861
    },
    {
      "Name" : "Namikango",
      "Type" : "Maternity",
      "Region" : "South",
      "District" : "Zomba",
      "Latitude" : -15.47723,
      "Longitude" : 35.24056
    },
    {
      "Name" : "H Parker Sharp Dispensary",
      "Type" : "Health Centre",
      "Region" : "South",
      "District" : "Zomba",
      "Latitude" : -15.29912,
      "Longitude" : 35.36092
    },
    {
      "Name" : "AHI Clinic",
      "Type" : "Clinic",
      "Region" : "South",
      "District" : "Zomba",
      "Latitude" : -15.38361,
      "Longitude" : 35.3223
    },
    {
      "Name" : "Chavula, Henry K. Mpunga Priva",
      "Type" : "Clinic",
      "Region" : "South",
      "District" : "Zomba",
      "Latitude" : -15.41083,
      "Longitude" : 35.32392
    },
    {
      "Name" : "Chinamwali Private Clinic",
      "Type" : "Clinic",
      "Region" : "South",
      "District" : "Zomba",
      "Latitude" : -15.3816,
      "Longitude" : 35.35584
    },
    {
      "Name" : "Mitondo, Peter R. P. Prime Pri",
      "Type" : "Clinic",
      "Region" : "South",
      "District" : "Zomba",
      "Latitude" : -15.5261,
      "Longitude" : 35.48619
    },
    {
      "Name" : "Ntata, Anthony C.",
      "Type" : "Clinic",
      "Region" : "South",
      "District" : "Zomba",
      "Latitude" : -15.38929,
      "Longitude" : 35.32056
    },
    {
      "Name" : "Wecare Maternity Private Clini",
      "Type" : "Clinic",
      "Region" : "South",
      "District" : "Zomba",
      "Latitude" : -15.37806,
      "Longitude" : 35.36123
    },
    {
      "Name" : "Maela Health Centre",
      "Type" : "Health Centre",
      "Region" : "South",
      "District" : "Zomba",
      "Latitude" : -15.50987,
      "Longitude" : 35.1315
    },
    {
      "Name" : "Mwandamu Health Centre",
      "Type" : "Health Centre",
      "Region" : "South",
      "District" : "Zomba",
      "Latitude" : -15.49803,
      "Longitude" : 35.18803
    },
    {
      "Name" : "Compassionate Mission Clinic",
      "Type" : "Clinic",
      "Region" : "South",
      "District" : "Zomba",
      "Latitude" : -15.32402,
      "Longitude" : 35.39372
    },
    {
      "Name" : "Zomba BLM",
      "Type" : "Clinic",
      "Region" : "South",
      "District" : "Zomba",
      "Latitude" : -15.38919,
      "Longitude" : 35.31989
    },
    {
      "Name" : "Chiradzulu District Hospital",
      "Type" : "District Hospital",
      "Region" : "South",
      "District" : "Chiradzulu",
      "Latitude" : -15.71072,
      "Longitude" : 35.17419
    },
    {
      "Name" : "Chitera Health Centre",
      "Type" : "Health Centre",
      "Region" : "South",
      "District" : "Chiradzulu",
      "Latitude" : -15.60646,
      "Longitude" : 35.12306
    },
    {
      "Name" : "Mauwa Health Centre",
      "Type" : "Health Centre",
      "Region" : "South",
      "District" : "Chiradzulu",
      "Latitude" : -15.65283,
      "Longitude" : 35.2498
    },
    {
      "Name" : "Mbulumbuzi Health Centre",
      "Type" : "Health Centre",
      "Region" : "South",
      "District" : "Chiradzulu",
      "Latitude" : -15.63834,
      "Longitude" : 35.15687
    },
    {
      "Name" : "Milepa Health Centre",
      "Type" : "Health Centre",
      "Region" : "South",
      "District" : "Chiradzulu",
      "Latitude" : -15.68713,
      "Longitude" : 35.31818
    },
    {
      "Name" : "Namadzi Health Centre",
      "Type" : "Health Centre",
      "Region" : "South",
      "District" : "Chiradzulu",
      "Latitude" : -15.54663,
      "Longitude" : 35.18761
    },
    {
      "Name" : "Namitambo Health Centre",
      "Type" : "Health Centre",
      "Region" : "South",
      "District" : "Chiradzulu",
      "Latitude" : -15.84113,
      "Longitude" : 35.27019
    },
    {
      "Name" : "Ndunde Health Centre",
      "Type" : "Health Centre",
      "Region" : "South",
      "District" : "Chiradzulu",
      "Latitude" : -15.69615,
      "Longitude" : 35.23355
    },
    {
      "Name" : "Nkalo Health Centre",
      "Type" : "Health Centre",
      "Region" : "South",
      "District" : "Chiradzulu",
      "Latitude" : -15.065,
      "Longitude" : 35.309
    },
    {
      "Name" : "Thumbwe Health Centre",
      "Type" : "Health Centre",
      "Region" : "South",
      "District" : "Chiradzulu",
      "Latitude" : -15.76823,
      "Longitude" : 35.24849
    },
    {
      "Name" : "St. Joseph Hospital",
      "Type" : "Rural/Community Hospital",
      "Region" : "South",
      "District" : "Chiradzulu",
      "Latitude" : -15.80173,
      "Longitude" : 35.16825
    },
    {
      "Name" : "PIM Health Centre",
      "Type" : "Health Centre",
      "Region" : "South",
      "District" : "Chiradzulu",
      "Latitude" : -15.75309,
      "Longitude" : 35.1923
    },
    {
      "Name" : "Akasale Private Clinic",
      "Type" : "Other Hospital",
      "Region" : "South",
      "District" : "Chiradzulu",
      "Latitude" : -15.7596,
      "Longitude" : 35.11493
    },
    {
      "Name" : "Bilal Islamic Clinic",
      "Type" : "Other Hospital",
      "Region" : "South",
      "District" : "Chiradzulu",
      "Latitude" : -15.74149,
      "Longitude" : 35.13047
    },
    {
      "Name" : "Namadzi Private Clinic",
      "Type" : "Other Hospital",
      "Region" : "South",
      "District" : "Chiradzulu",
      "Latitude" : -15.5494,
      "Longitude" : 35.181
    },
    {
      "Name" : "Queen Elizabeth Central Hospit",
      "Type" : "Central Hospital",
      "Region" : "South",
      "District" : "Blantyre",
      "Latitude" : -15.80214,
      "Longitude" : 35.021
    },
    {
      "Name" : "Blantyre City Assembly Clinic",
      "Type" : "Clinic",
      "Region" : "South",
      "District" : "Blantyre",
      "Latitude" : -15.80333,
      "Longitude" : 35.03895
    },
    {
      "Name" : "Bangwe Health Centre",
      "Type" : "Health Centre",
      "Region" : "South",
      "District" : "Blantyre",
      "Latitude" : -15.82382,
      "Longitude" : 35.08046
    },
    {
      "Name" : "Chabvala Health Centre",
      "Type" : "Health Centre",
      "Region" : "South",
      "District" : "Blantyre",
      "Latitude" : -15.83372,
      "Longitude" : 34.83461
    },
    {
      "Name" : "Chikowa Health Centre",
      "Type" : "Health Centre",
      "Region" : "South",
      "District" : "Blantyre",
      "Latitude" : -15.67133,
      "Longitude" : 34.87172
    },
    {
      "Name" : "Chileka Health Centre",
      "Type" : "Health Centre",
      "Region" : "South",
      "District" : "Blantyre",
      "Latitude" : -15.68575,
      "Longitude" : 34.014
    },
    {
      "Name" : "Chilomoni Health Centre",
      "Type" : "Health Centre",
      "Region" : "South",
      "District" : "Blantyre",
      "Latitude" : -15.77128,
      "Longitude" : 34.98156
    },
    {
      "Name" : "Chimembe Health Centre",
      "Type" : "Health Centre",
      "Region" : "South",
      "District" : "Blantyre",
      "Latitude" : -15.77733,
      "Longitude" : 34.88548
    },
    {
      "Name" : "Dziwe Health Centre",
      "Type" : "Health Centre",
      "Region" : "South",
      "District" : "Blantyre",
      "Latitude" : -15.56369,
      "Longitude" : 34.88038
    },
    {
      "Name" : "Limbe Health Centre",
      "Type" : "Health Centre",
      "Region" : "South",
      "District" : "Blantyre",
      "Latitude" : -15.81688,
      "Longitude" : 35.05176
    },
    {
      "Name" : "Lirangwe Health Centre",
      "Type" : "Health Centre",
      "Region" : "South",
      "District" : "Blantyre",
      "Latitude" : -15.52963,
      "Longitude" : 35.023
    },
    {
      "Name" : "Lundu Health Centre",
      "Type" : "Health Centre",
      "Region" : "South",
      "District" : "Blantyre",
      "Latitude" : -15.42185,
      "Longitude" : 35.01294
    },
    {
      "Name" : "Madziabango Health Centre",
      "Type" : "Health Centre",
      "Region" : "South",
      "District" : "Blantyre",
      "Latitude" : -15.9678,
      "Longitude" : 34.90825
    },
    {
      "Name" : "Makata Health Centre",
      "Type" : "Health Centre",
      "Region" : "South",
      "District" : "Blantyre",
      "Latitude" : -15.62996,
      "Longitude" : 35.07964
    },
    {
      "Name" : "Mdeka Health Centre",
      "Type" : "Health Centre",
      "Region" : "South",
      "District" : "Blantyre",
      "Latitude" : -15.46769,
      "Longitude" : 34.94236
    },
    {
      "Name" : "Mpemba Health Centre",
      "Type" : "Health Centre",
      "Region" : "South",
      "District" : "Blantyre",
      "Latitude" : -15.87385,
      "Longitude" : 34.9523
    },
    {
      "Name" : "Namikoko Health Centre",
      "Type" : "Health Centre",
      "Region" : "South",
      "District" : "Blantyre",
      "Latitude" : -15.48651,
      "Longitude" : 35.07379
    },
    {
      "Name" : "Ndirande Health Centre",
      "Type" : "Health Centre",
      "Region" : "South",
      "District" : "Blantyre",
      "Latitude" : -15.7781,
      "Longitude" : 35.03946
    },
    {
      "Name" : "South Lunzu Health Centre",
      "Type" : "Health Centre",
      "Region" : "South",
      "District" : "Blantyre",
      "Latitude" : -15.72678,
      "Longitude" : 35.05471
    },
    {
      "Name" : "Sanjika Clinic",
      "Type" : "Clinic",
      "Region" : "South",
      "District" : "Blantyre",
      "Latitude" : -15.79267,
      "Longitude" : 34.288
    },
    {
      "Name" : "Zingwangwa Health Centre",
      "Type" : "Health Centre",
      "Region" : "South",
      "District" : "Blantyre",
      "Latitude" : -15.8214,
      "Longitude" : 35.011
    },
    {
      "Name" : "Blantyre Adventist Hospital",
      "Type" : "Other Hospital",
      "Region" : "South",
      "District" : "Blantyre",
      "Latitude" : -15.7824,
      "Longitude" : 35.0031
    },
    {
      "Name" : "Mlambe Hospital",
      "Type" : "Other Hospital",
      "Region" : "South",
      "District" : "Blantyre",
      "Latitude" : -15.64466,
      "Longitude" : 35.01733
    },
    {
      "Name" : "Chileka SDA Health Centre",
      "Type" : "Health Centre",
      "Region" : "South",
      "District" : "Blantyre",
      "Latitude" : -15.65986,
      "Longitude" : 34.92904
    },
    {
      "Name" : "Malabada Health Centre",
      "Type" : "Health Centre",
      "Region" : "South",
      "District" : "Blantyre",
      "Latitude" : -15.76759,
      "Longitude" : 35.04446
    },
    {
      "Name" : "St Vincent Health Centre",
      "Type" : "Health Centre",
      "Region" : "South",
      "District" : "Blantyre",
      "Latitude" : -15.91421,
      "Longitude" : 34.94984
    },
    {
      "Name" : "Soche Maternity",
      "Type" : "Health Centre",
      "Region" : "South",
      "District" : "Blantyre",
      "Latitude" : -15.85726,
      "Longitude" : 35.02761
    },
    {
      "Name" : "Soche SDA Dispensary",
      "Type" : "Clinic",
      "Region" : "South",
      "District" : "Blantyre",
      "Latitude" : -15.80918,
      "Longitude" : 35.017
    },
    {
      "Name" : "Dr Chilemba Surgery",
      "Type" : "Clinic",
      "Region" : "South",
      "District" : "Blantyre",
      "Latitude" : -15.7864,
      "Longitude" : 35.0008
    },
    {
      "Name" : "Dr Dzinyemba Private Clinic",
      "Type" : "Clinic",
      "Region" : "South",
      "District" : "Blantyre",
      "Latitude" : -15.78609,
      "Longitude" : 35.00663
    },
    {
      "Name" : "Dr S. Kampondeni",
      "Type" : "Other Hospital",
      "Region" : "South",
      "District" : "Blantyre",
      "Latitude" : -15.81641,
      "Longitude" : 35.06629
    },
    {
      "Name" : "Dzamalala, Charles  P. Malmed",
      "Type" : "Clinic",
      "Region" : "South",
      "District" : "Blantyre",
      "Latitude" : -15.78655,
      "Longitude" : 35.00747
    },
    {
      "Name" : "Girach, Bilkis A.",
      "Type" : "Other Hospital",
      "Region" : "South",
      "District" : "Blantyre",
      "Latitude" : -15.78721,
      "Longitude" : 35.00488
    },
    {
      "Name" : "Limbe Private Hospital, Kalong",
      "Type" : "Other Hospital",
      "Region" : "South",
      "District" : "Blantyre",
      "Latitude" : -15.80902,
      "Longitude" : 35.05916
    },
    {
      "Name" : "Mtengoumodzi Private Hospital,",
      "Type" : "Other Hospital",
      "Region" : "South",
      "District" : "Blantyre",
      "Latitude" : -15.7245,
      "Longitude" : 35.01637
    },
    {
      "Name" : "Munthali, Joyce W. Naperi medi",
      "Type" : "Other Hospital",
      "Region" : "South",
      "District" : "Blantyre",
      "Latitude" : -15.8044,
      "Longitude" : 35.0082
    },
    {
      "Name" : "Mwaiwathu Private Hospital",
      "Type" : "Other Hospital",
      "Region" : "South",
      "District" : "Blantyre",
      "Latitude" : -15.78547,
      "Longitude" : 35.01691
    },
    {
      "Name" : "Nyambadwe Private Hospital",
      "Type" : "Other Hospital",
      "Region" : "South",
      "District" : "Blantyre",
      "Latitude" : -15.77139,
      "Longitude" : 35.02323
    },
    {
      "Name" : "Jere, Raymond M. Medicare Heal",
      "Type" : "Clinic",
      "Region" : "South",
      "District" : "Blantyre",
      "Latitude" : -15.78671,
      "Longitude" : 35.00799
    },
    {
      "Name" : "Lumbira / Mitsidi Health Centr",
      "Type" : "Health Centre",
      "Region" : "South",
      "District" : "Blantyre",
      "Latitude" : -15.77702,
      "Longitude" : 34.96873
    },
    {
      "Name" : "Amitofo Care Centre",
      "Type" : "Clinic",
      "Region" : "South",
      "District" : "Blantyre",
      "Latitude" : -15.74768,
      "Longitude" : 35.10747
    },
    {
      "Name" : "Ayali Private Clinic",
      "Type" : "Clinic",
      "Region" : "South",
      "District" : "Blantyre",
      "Latitude" : -15.65929,
      "Longitude" : 35.02114
    },
    {
      "Name" : "Belton Kapyepye Memorial Clini",
      "Type" : "Clinic",
      "Region" : "South",
      "District" : "Blantyre",
      "Latitude" : -15.80869,
      "Longitude" : 34.99434
    },
    {
      "Name" : "Bernald Kachale Private Clinic",
      "Type" : "Clinic",
      "Region" : "South",
      "District" : "Blantyre",
      "Latitude" : -15.78018,
      "Longitude" : 35.07352
    },
    {
      "Name" : "Chifundo Private Clinic, Monje",
      "Type" : "Clinic",
      "Region" : "South",
      "District" : "Blantyre",
      "Latitude" : -15.77562,
      "Longitude" : 34.98003
    },
    {
      "Name" : "Chilani Clinic",
      "Type" : "Clinic",
      "Region" : "South",
      "District" : "Blantyre",
      "Latitude" : -15.82874,
      "Longitude" : 35.00677
    },
    {
      "Name" : "Chilobwe Private Clinic, Banda",
      "Type" : "Clinic",
      "Region" : "South",
      "District" : "Blantyre",
      "Latitude" : -15.83305,
      "Longitude" : 35.00742
    },
    {
      "Name" : "Chilomoni Private Clinic, Ngai",
      "Type" : "Clinic",
      "Region" : "South",
      "District" : "Blantyre",
      "Latitude" : -15.77435,
      "Longitude" : 34.98145
    },
    {
      "Name" : "Chinjobvu Private Clinic, Phir",
      "Type" : "Clinic",
      "Region" : "South",
      "District" : "Blantyre",
      "Latitude" : -15.73676,
      "Longitude" : 35.0192
    },
    {
      "Name" : "Chisi, John E M. Limbe Diagnos",
      "Type" : "Clinic",
      "Region" : "South",
      "District" : "Blantyre",
      "Latitude" : -15.81863,
      "Longitude" : 35.05639
    },
    {
      "Name" : "Chitekwe, Arthur D. Arthur Gar",
      "Type" : "Clinic",
      "Region" : "South",
      "District" : "Blantyre",
      "Latitude" : -15.83626,
      "Longitude" : 35.09193
    },
    {
      "Name" : "Dalirani Clinic",
      "Type" : "Clinic",
      "Region" : "South",
      "District" : "Blantyre",
      "Latitude" : -15.82529,
      "Longitude" : 35.08039
    },
    {
      "Name" : "De Johnstone, Maria I M.",
      "Type" : "Clinic",
      "Region" : "South",
      "District" : "Blantyre",
      "Latitude" : -15.78487,
      "Longitude" : 35.01768
    },
    {
      "Name" : "El-Barakah Private Clinic, Nte",
      "Type" : "Clinic",
      "Region" : "South",
      "District" : "Blantyre",
      "Latitude" : -15.68337,
      "Longitude" : 34.96584
    },
    {
      "Name" : "Elim Private Clinic",
      "Type" : "Clinic",
      "Region" : "South",
      "District" : "Blantyre",
      "Latitude" : -15.8188,
      "Longitude" : 35.01231
    },
    {
      "Name" : "Hale Medical Skin Clinic, Mwal",
      "Type" : "Clinic",
      "Region" : "South",
      "District" : "Blantyre",
      "Latitude" : -15.81064,
      "Longitude" : 35.01438
    },
    {
      "Name" : "Kanjedza MASM Medi Clinic",
      "Type" : "Other Hospital",
      "Region" : "South",
      "District" : "Blantyre",
      "Latitude" : -15.81227,
      "Longitude" : 35.05504
    },
    {
      "Name" : "Khuoge, Dane.",
      "Type" : "Clinic",
      "Region" : "South",
      "District" : "Blantyre",
      "Latitude" : -15.76708,
      "Longitude" : 35.07471
    },
    {
      "Name" : "Limbe Health Clinic, Ngwira, W",
      "Type" : "Clinic",
      "Region" : "South",
      "District" : "Blantyre",
      "Latitude" : -15.81315,
      "Longitude" : 35.06119
    },
    {
      "Name" : "Lungu Private Clinic, Lungu, J",
      "Type" : "Clinic",
      "Region" : "South",
      "District" : "Blantyre",
      "Latitude" : -15.82999,
      "Longitude" : 35.07883
    },
    {
      "Name" : "Makwasa Private Clinic, Taulo,",
      "Type" : "Clinic",
      "Region" : "South",
      "District" : "Blantyre",
      "Latitude" : -15.75017,
      "Longitude" : 35.0805
    },
    {
      "Name" : "Malamulo Day Clinic Amina",
      "Type" : "Other Hospital",
      "Region" : "South",
      "District" : "Blantyre",
      "Latitude" : -15.80361,
      "Longitude" : 35.07471
    },
    {
      "Name" : "Merit Private Clinic, Masangan",
      "Type" : "Clinic",
      "Region" : "South",
      "District" : "Blantyre",
      "Latitude" : -15.77927,
      "Longitude" : 35.04387
    },
    {
      "Name" : "Mkwaira, Ladison E. L & A Priv",
      "Type" : "Clinic",
      "Region" : "South",
      "District" : "Blantyre",
      "Latitude" : -15.77528,
      "Longitude" : 35.04706
    },
    {
      "Name" : "Moyo Private Clinic, Manjomo,",
      "Type" : "Clinic",
      "Region" : "South",
      "District" : "Blantyre",
      "Latitude" : -15.65374,
      "Longitude" : 35.02013
    },
    {
      "Name" : "Mt. Soche Clinic, Nyirenda, Co",
      "Type" : "Clinic",
      "Region" : "South",
      "District" : "Blantyre",
      "Latitude" : -15.81289,
      "Longitude" : 35.02227
    },
    {
      "Name" : "Munthali, Ndikulakwanji N. Pra",
      "Type" : "Clinic",
      "Region" : "South",
      "District" : "Blantyre",
      "Latitude" : -15.72915,
      "Longitude" : 35.05581
    },
    {
      "Name" : "Mwachira Private Clinic, Chikw",
      "Type" : "Clinic",
      "Region" : "South",
      "District" : "Blantyre",
      "Latitude" : -15.65548,
      "Longitude" : 35.02158
    },
    {
      "Name" : "Mwaiwathu Clinic, Mbvundula, M",
      "Type" : "Clinic",
      "Region" : "South",
      "District" : "Blantyre",
      "Latitude" : -15.81191,
      "Longitude" : 35.04788
    },
    {
      "Name" : "Mwanamanga, Happiness.",
      "Type" : "Clinic",
      "Region" : "South",
      "District" : "Blantyre",
      "Latitude" : -15.762,
      "Longitude" : 34
    },
    {
      "Name" : "Semema Clinic",
      "Type" : "Clinic",
      "Region" : "South",
      "District" : "Blantyre",
      "Latitude" : -15.73135,
      "Longitude" : 35.05798
    },
    {
      "Name" : "Shifa Medical Centre",
      "Type" : "Clinic",
      "Region" : "South",
      "District" : "Blantyre",
      "Latitude" : -15.78715,
      "Longitude" : 35.01045
    },
    {
      "Name" : "Tadala Private Clinic",
      "Type" : "Clinic",
      "Region" : "South",
      "District" : "Blantyre",
      "Latitude" : -15.83304,
      "Longitude" : 35.0852
    },
    {
      "Name" : "Thandizo Private Clinic, Semak",
      "Type" : "Clinic",
      "Region" : "South",
      "District" : "Blantyre",
      "Latitude" : -15.74337,
      "Longitude" : 35.01677
    },
    {
      "Name" : "Thejopal, Rita S.",
      "Type" : "Clinic",
      "Region" : "South",
      "District" : "Blantyre",
      "Latitude" : -15.78392,
      "Longitude" : 35.00238
    },
    {
      "Name" : "Tilinanu Private Clinic, Tamao",
      "Type" : "Clinic",
      "Region" : "South",
      "District" : "Blantyre",
      "Latitude" : -15.77382,
      "Longitude" : 35.03262
    },
    {
      "Name" : "Truzag",
      "Type" : "Clinic",
      "Region" : "South",
      "District" : "Blantyre",
      "Latitude" : -15.81196,
      "Longitude" : 35.05753
    },
    {
      "Name" : "Viyuyi, Mathews M. Yankho Priv",
      "Type" : "Clinic",
      "Region" : "South",
      "District" : "Blantyre",
      "Latitude" : -15.74251,
      "Longitude" : 35.0776
    },
    {
      "Name" : "Beit trust Cure International",
      "Type" : "Other Hospital",
      "Region" : "South",
      "District" : "Blantyre",
      "Latitude" : -15.80354,
      "Longitude" : 35.01753
    },
    {
      "Name" : "Kachere Rehabilitation Centre",
      "Type" : "Other Hospital",
      "Region" : "South",
      "District" : "Blantyre",
      "Latitude" : -15.80339,
      "Longitude" : 35.01819
    },
    {
      "Name" : "Blantyre Dream Project Clinic",
      "Type" : "Health Centre",
      "Region" : "South",
      "District" : "Blantyre",
      "Latitude" : -15.79182,
      "Longitude" : 35.01273
    },
    {
      "Name" : "Aquid Lifeline Project",
      "Type" : "Clinic",
      "Region" : "South",
      "District" : "Blantyre",
      "Latitude" : -15.62217,
      "Longitude" : 35.05604
    },
    {
      "Name" : "BLM Chilomoni Clinic",
      "Type" : "Clinic",
      "Region" : "South",
      "District" : "Blantyre",
      "Latitude" : -15.7757,
      "Longitude" : 34.98048
    },
    {
      "Name" : "BLM Lunzu Clinic",
      "Type" : "Clinic",
      "Region" : "South",
      "District" : "Blantyre",
      "Latitude" : -15.65114,
      "Longitude" : 35.02028
    },
    {
      "Name" : "BLM Midima Clinic",
      "Type" : "Clinic",
      "Region" : "South",
      "District" : "Blantyre",
      "Latitude" : -15.83121,
      "Longitude" : 35.08006
    },
    {
      "Name" : "BLM Zingwangwa Clinic",
      "Type" : "Clinic",
      "Region" : "South",
      "District" : "Blantyre",
      "Latitude" : -15.81847,
      "Longitude" : 35.01171
    },
    {
      "Name" : "Limbe Home Based Care Centre",
      "Type" : "Clinic",
      "Region" : "South",
      "District" : "Blantyre",
      "Latitude" : -15.81714,
      "Longitude" : 35.05187
    },
    {
      "Name" : "Macro Blantyre Clinic",
      "Type" : "Clinic",
      "Region" : "South",
      "District" : "Blantyre",
      "Latitude" : -15.80705,
      "Longitude" : 35.02993
    },
    {
      "Name" : "Madinah Social Services Clinic",
      "Type" : "Clinic",
      "Region" : "South",
      "District" : "Blantyre",
      "Latitude" : -15.82931,
      "Longitude" : 35.07405
    },
    {
      "Name" : "Ndirande BLM Clinic",
      "Type" : "Clinic",
      "Region" : "South",
      "District" : "Blantyre",
      "Latitude" : -15.77364,
      "Longitude" : 35.03081
    },
    {
      "Name" : "SOS Medical Centre",
      "Type" : "Clinic",
      "Region" : "South",
      "District" : "Blantyre",
      "Latitude" : -15.72562,
      "Longitude" : 35.05823
    },
    {
      "Name" : "Mwanza District Hospital",
      "Type" : "District Hospital",
      "Region" : "South",
      "District" : "Mwanza",
      "Latitude" : -15.59118,
      "Longitude" : 34.50998
    },
    {
      "Name" : "Kunenekude Health Centre",
      "Type" : "Health Centre",
      "Region" : "South",
      "District" : "Mwanza",
      "Latitude" : -15.46467,
      "Longitude" : 34.49142
    },
    {
      "Name" : "Thambani Health Centre",
      "Type" : "Health Centre",
      "Region" : "South",
      "District" : "Mwanza",
      "Latitude" : -15.72609,
      "Longitude" : 34.39953
    },
    {
      "Name" : "Tulonkhondo Health Centre",
      "Type" : "Health Centre",
      "Region" : "South",
      "District" : "Mwanza",
      "Latitude" : -15.7496,
      "Longitude" : 34.52277
    },
    {
      "Name" : "Tiyende Ptv Clinic",
      "Type" : "Clinic",
      "Region" : "South",
      "District" : "Mwanza",
      "Latitude" : -15.59467,
      "Longitude" : 34.51102
    },
    {
      "Name" : "Muyendebwino Wellness Centre",
      "Type" : "Clinic",
      "Region" : "South",
      "District" : "Mwanza",
      "Latitude" : -15.57835,
      "Longitude" : 34.47736
    },
    {
      "Name" : "Mwanza BLM Clinic",
      "Type" : "Clinic",
      "Region" : "South",
      "District" : "Mwanza",
      "Latitude" : -15.547,
      "Longitude" : 34.51505
    },
    {
      "Name" : "Thyolo District Hospital",
      "Type" : "District Hospital",
      "Region" : "South",
      "District" : "Thyolo",
      "Latitude" : -16.06937,
      "Longitude" : 35.14806
    },
    {
      "Name" : "Thekerani Rural Hospital",
      "Type" : "Rural/Community Hospital",
      "Region" : "South",
      "District" : "Thyolo",
      "Latitude" : -16.32104,
      "Longitude" : 35.20741
    },
    {
      "Name" : "Bvumbwe Health Centre",
      "Type" : "Health Centre",
      "Region" : "South",
      "District" : "Thyolo",
      "Latitude" : -15.92823,
      "Longitude" : 35.07786
    },
    {
      "Name" : "Bvumbwe Makungwa Health Centre",
      "Type" : "Health Centre",
      "Region" : "South",
      "District" : "Thyolo",
      "Latitude" : -15.93981,
      "Longitude" : 35.02633
    },
    {
      "Name" : "Changata Health Centre",
      "Type" : "Health Centre",
      "Region" : "South",
      "District" : "Thyolo",
      "Latitude" : -16.23248,
      "Longitude" : 35.14768
    },
    {
      "Name" : "Chimaliro Health Centre",
      "Type" : "Health Centre",
      "Region" : "South",
      "District" : "Thyolo",
      "Latitude" : -15.706,
      "Longitude" : 35.18162
    },
    {
      "Name" : "Chimvu",
      "Type" : "Health Centre",
      "Region" : "South",
      "District" : "Thyolo",
      "Latitude" : -15.94198,
      "Longitude" : 35.12308
    },
    {
      "Name" : "Chisoka Health Centre",
      "Type" : "Health Centre",
      "Region" : "South",
      "District" : "Thyolo",
      "Latitude" : -15.94181,
      "Longitude" : 35.20879
    },
    {
      "Name" : "Dzimbiri Health Centre (DiDi)",
      "Type" : "Health Centre",
      "Region" : "South",
      "District" : "Thyolo",
      "Latitude" : -16.06096,
      "Longitude" : 34.98999
    },
    {
      "Name" : "Kadango Health Centre",
      "Type" : "Clinic",
      "Region" : "South",
      "District" : "Thyolo",
      "Latitude" : -16.00683,
      "Longitude" : 35.31009
    },
    {
      "Name" : "Khonjeni Health Centre",
      "Type" : "Health Centre",
      "Region" : "South",
      "District" : "Thyolo",
      "Latitude" : -16.09692,
      "Longitude" : 35.27129
    },
    {
      "Name" : "Mikolongwe Health Centre",
      "Type" : "Health Centre",
      "Region" : "South",
      "District" : "Thyolo",
      "Latitude" : -15.90149,
      "Longitude" : 35.18367
    },
    {
      "Name" : "Zoa Health Centre",
      "Type" : "Health Centre",
      "Region" : "South",
      "District" : "Thyolo",
      "Latitude" : -16.23764,
      "Longitude" : 35.19992
    },
    {
      "Name" : "Chingadzi Rural Hospital",
      "Type" : "Rural/Community Hospital",
      "Region" : "South",
      "District" : "Thyolo",
      "Latitude" : -15.91842,
      "Longitude" : 35.20595
    },
    {
      "Name" : "Malamulo Mission Hospital",
      "Type" : "Other Hospital",
      "Region" : "South",
      "District" : "Thyolo",
      "Latitude" : -16.17155,
      "Longitude" : 35.11011
    },
    {
      "Name" : "Chipho Health Centre",
      "Type" : "Health Centre",
      "Region" : "South",
      "District" : "Thyolo",
      "Latitude" : -16.171528,
      "Longitude" : 35.110222
    },
    {
      "Name" : "Makapwa Health Centre",
      "Type" : "Health Centre",
      "Region" : "South",
      "District" : "Thyolo",
      "Latitude" : -16.18199,
      "Longitude" : 35.27984
    },
    {
      "Name" : "Mitengo Health Centre",
      "Type" : "Health Centre",
      "Region" : "South",
      "District" : "Thyolo",
      "Latitude" : -16.11123,
      "Longitude" : 35.24591
    },
    {
      "Name" : "Molere Health Centre",
      "Type" : "Health Centre",
      "Region" : "South",
      "District" : "Thyolo",
      "Latitude" : -16.21758,
      "Longitude" : 35.13552
    },
    {
      "Name" : "Thomasi Health Centre",
      "Type" : "Health Centre",
      "Region" : "South",
      "District" : "Thyolo",
      "Latitude" : -16.02878,
      "Longitude" : 34.881
    },
    {
      "Name" : "Halena Oakely/Mtambanyama Clin",
      "Type" : "Clinic",
      "Region" : "South",
      "District" : "Thyolo",
      "Latitude" : -16.12668,
      "Longitude" : 35.08457
    },
    {
      "Name" : "Hiwa, Garfield J. Monekera Pri",
      "Type" : "Clinic",
      "Region" : "South",
      "District" : "Thyolo",
      "Latitude" : -15.92686,
      "Longitude" : 35.08661
    },
    {
      "Name" : "Jeofia",
      "Type" : "Clinic",
      "Region" : "South",
      "District" : "Thyolo",
      "Latitude" : -16.00758,
      "Longitude" : 35.30825
    },
    {
      "Name" : "Kaliwo, Ignacious S. Luchenza",
      "Type" : "Clinic",
      "Region" : "South",
      "District" : "Thyolo",
      "Latitude" : -16.00796,
      "Longitude" : 35.30939
    },
    {
      "Name" : "Lumbe, John L.",
      "Type" : "Clinic",
      "Region" : "South",
      "District" : "Thyolo",
      "Latitude" : -15.92153,
      "Longitude" : 35.08464
    },
    {
      "Name" : "Mbvundula, Presley G. Germa Pr",
      "Type" : "Clinic",
      "Region" : "South",
      "District" : "Thyolo",
      "Latitude" : -15.88722,
      "Longitude" : 35.06443
    },
    {
      "Name" : "BLM Bvumbwe Clinic",
      "Type" : "Clinic",
      "Region" : "South",
      "District" : "Thyolo",
      "Latitude" : -15.93133,
      "Longitude" : 35.08213
    },
    {
      "Name" : "Magunda Health Centre",
      "Type" : "Health Centre",
      "Region" : "South",
      "District" : "Thyolo",
      "Latitude" : -16.02884,
      "Longitude" : 35.26166
    },
    {
      "Name" : "Mianga Health Centre",
      "Type" : "Health Centre",
      "Region" : "South",
      "District" : "Thyolo",
      "Latitude" : -16.09883,
      "Longitude" : 35.07553
    },
    {
      "Name" : "Naming'omba Health Centre",
      "Type" : "Health Centre",
      "Region" : "South",
      "District" : "Thyolo",
      "Latitude" : -16.04009,
      "Longitude" : 35.08996
    },
    {
      "Name" : "Sambankhanga Health Centre",
      "Type" : "Health Centre",
      "Region" : "South",
      "District" : "Thyolo",
      "Latitude" : -16.13981,
      "Longitude" : 35.09852
    },
    {
      "Name" : "Satemwa Clinic",
      "Type" : "Health Centre",
      "Region" : "South",
      "District" : "Thyolo",
      "Latitude" : -16.07641,
      "Longitude" : 35.07692
    },
    {
      "Name" : "Thunga Health Centre",
      "Type" : "Health Centre",
      "Region" : "South",
      "District" : "Thyolo",
      "Latitude" : -16.00096,
      "Longitude" : 35.06532
    },
    {
      "Name" : "Gotha Dispensary",
      "Type" : "Dispensary",
      "Region" : "South",
      "District" : "Thyolo",
      "Latitude" : -16.09239,
      "Longitude" : 35.19011
    },
    {
      "Name" : "Kasembeleka",
      "Type" : "Dispensary",
      "Region" : "South",
      "District" : "Thyolo",
      "Latitude" : -16.12131,
      "Longitude" : 35.09902
    },
    {
      "Name" : "Kumadzi Dispensary",
      "Type" : "Dispensary",
      "Region" : "South",
      "District" : "Thyolo",
      "Latitude" : -16.1003,
      "Longitude" : 35.28876
    },
    {
      "Name" : "Mafisi Health Centre",
      "Type" : "Clinic",
      "Region" : "South",
      "District" : "Thyolo",
      "Latitude" : -16.06805,
      "Longitude" : 35.25101
    },
    {
      "Name" : "Makwasa Estate Clinic",
      "Type" : "Clinic",
      "Region" : "South",
      "District" : "Thyolo",
      "Latitude" : -16.19476,
      "Longitude" : 35.10564
    },
    {
      "Name" : "Mchima Clinic",
      "Type" : "Clinic",
      "Region" : "South",
      "District" : "Thyolo",
      "Latitude" : -16.11388,
      "Longitude" : 35.14018
    },
    {
      "Name" : "Nasonia",
      "Type" : "Clinic",
      "Region" : "South",
      "District" : "Thyolo",
      "Latitude" : -16.02475,
      "Longitude" : 35.1565
    },
    {
      "Name" : "Mulanje District Hospital",
      "Type" : "District Hospital",
      "Region" : "South",
      "District" : "Mulanje",
      "Latitude" : -16.02549,
      "Longitude" : 35.50785
    },
    {
      "Name" : "Bondo Health Centre",
      "Type" : "Health Centre",
      "Region" : "South",
      "District" : "Mulanje",
      "Latitude" : -16.04267,
      "Longitude" : 35.61388
    },
    {
      "Name" : "Chambe Health Centre",
      "Type" : "Health Centre",
      "Region" : "South",
      "District" : "Mulanje",
      "Latitude" : -15.90334,
      "Longitude" : 35.49075
    },
    {
      "Name" : "Chinyama Health Centre",
      "Type" : "Health Centre",
      "Region" : "South",
      "District" : "Mulanje",
      "Latitude" : -16.15665,
      "Longitude" : 35.34094
    },
    {
      "Name" : "Chisitu Health Centre",
      "Type" : "Health Centre",
      "Region" : "South",
      "District" : "Mulanje",
      "Latitude" : -16.00103,
      "Longitude" : 35.4326
    },
    {
      "Name" : "Chonde Health Centre",
      "Type" : "Health Centre",
      "Region" : "South",
      "District" : "Mulanje",
      "Latitude" : -15.908,
      "Longitude" : 35.32333
    },
    {
      "Name" : "Dzenje Health Centre",
      "Type" : "Health Centre",
      "Region" : "South",
      "District" : "Mulanje",
      "Latitude" : -16.11695,
      "Longitude" : 35.40558
    },
    {
      "Name" : "Kambenje Health Centre",
      "Type" : "Health Centre",
      "Region" : "South",
      "District" : "Mulanje",
      "Latitude" : -15.85308,
      "Longitude" : 35.56394
    },
    {
      "Name" : "Mbiza Health Centre",
      "Type" : "Health Centre",
      "Region" : "South",
      "District" : "Mulanje",
      "Latitude" : -16.0929,
      "Longitude" : 35.34602
    },
    {
      "Name" : "Milonde Health Centre",
      "Type" : "Health Centre",
      "Region" : "South",
      "District" : "Mulanje",
      "Latitude" : -16.10264,
      "Longitude" : 35.47826
    },
    {
      "Name" : "Mimosa Dispensary",
      "Type" : "Dispensary",
      "Region" : "South",
      "District" : "Mulanje",
      "Latitude" : -16.08574,
      "Longitude" : 35.61263
    },
    {
      "Name" : "Mkomaula Health Centre",
      "Type" : "Health Centre",
      "Region" : "South",
      "District" : "Mulanje",
      "Latitude" : -15.7211,
      "Longitude" : 35.36672
    },
    {
      "Name" : "Mpala Health Centre",
      "Type" : "Health Centre",
      "Region" : "South",
      "District" : "Mulanje",
      "Latitude" : -16.14386,
      "Longitude" : 35.52479
    },
    {
      "Name" : "Mulomba Health Centre",
      "Type" : "Health Centre",
      "Region" : "South",
      "District" : "Mulanje",
      "Latitude" : -15.76535,
      "Longitude" : 35.51182
    },
    {
      "Name" : "Muloza Heath Centre",
      "Type" : "Health Centre",
      "Region" : "South",
      "District" : "Mulanje",
      "Latitude" : -16.06252,
      "Longitude" : 35.76226
    },
    {
      "Name" : "Namphungo Health Centre",
      "Type" : "Health Centre",
      "Region" : "South",
      "District" : "Mulanje",
      "Latitude" : -15.80407,
      "Longitude" : 35.3491
    },
    {
      "Name" : "Naphimba Health Centre",
      "Type" : "Health Centre",
      "Region" : "South",
      "District" : "Mulanje",
      "Latitude" : -16.03628,
      "Longitude" : 35.67854
    },
    {
      "Name" : "Thuchila Health Centre",
      "Type" : "Health Centre",
      "Region" : "South",
      "District" : "Mulanje",
      "Latitude" : -15.91917,
      "Longitude" : 35.36119
    },
    {
      "Name" : "Mulanje Mission Hospital",
      "Type" : "Other Hospital",
      "Region" : "South",
      "District" : "Mulanje",
      "Latitude" : -16.02103,
      "Longitude" : 35.46436
    },
    {
      "Name" : "Namasalima Health Centre",
      "Type" : "Health Centre",
      "Region" : "South",
      "District" : "Mulanje",
      "Latitude" : -16.08016,
      "Longitude" : 35.71573
    },
    {
      "Name" : "Namulenga Health Centre",
      "Type" : "Health Centre",
      "Region" : "South",
      "District" : "Mulanje",
      "Latitude" : -15.86563,
      "Longitude" : 35.32718
    },
    {
      "Name" : "Thembe Health Centre",
      "Type" : "Health Centre",
      "Region" : "South",
      "District" : "Mulanje",
      "Latitude" : -16.08703,
      "Longitude" : 35.43417
    },
    {
      "Name" : "Fomo Clinic",
      "Type" : "Clinic",
      "Region" : "South",
      "District" : "Mulanje",
      "Latitude" : -16.00603,
      "Longitude" : 35.48167
    },
    {
      "Name" : "Khamalathu Private Clinic",
      "Type" : "Clinic",
      "Region" : "South",
      "District" : "Mulanje",
      "Latitude" : -16.10652,
      "Longitude" : 35.34491
    },
    {
      "Name" : "Lingalawe, Albert. Chiluli Pri",
      "Type" : "Clinic",
      "Region" : "South",
      "District" : "Mulanje",
      "Latitude" : -16.00946,
      "Longitude" : 35.48489
    },
    {
      "Name" : "Saha Private Clinic, Ngulama,",
      "Type" : "Clinic",
      "Region" : "South",
      "District" : "Mulanje",
      "Latitude" : -16.07894,
      "Longitude" : 35.73156
    },
    {
      "Name" : "Mulanje BLM Clinic",
      "Type" : "Clinic",
      "Region" : "South",
      "District" : "Mulanje",
      "Latitude" : -16.01418,
      "Longitude" : 35.49317
    },
    {
      "Name" : "Lujeri Health Centre",
      "Type" : "Health Centre",
      "Region" : "South",
      "District" : "Mulanje",
      "Latitude" : -16.02826,
      "Longitude" : 35.65517
    },
    {
      "Name" : "Chitekesa Health Centre",
      "Type" : "Health Centre",
      "Region" : "South",
      "District" : "Phalombe",
      "Latitude" : -15.55218,
      "Longitude" : 35.57244
    },
    {
      "Name" : "Kalinde Health Centre",
      "Type" : "Health Centre",
      "Region" : "South",
      "District" : "Phalombe",
      "Latitude" : -15.67187,
      "Longitude" : 35.72838
    },
    {
      "Name" : "Migowi Health Centre",
      "Type" : "Health Centre",
      "Region" : "South",
      "District" : "Phalombe",
      "Latitude" : -15.71922,
      "Longitude" : 35.68542
    },
    {
      "Name" : "Mkhwayi Health Centre",
      "Type" : "Health Centre",
      "Region" : "South",
      "District" : "Phalombe",
      "Latitude" : -15.61457,
      "Longitude" : 35.62787
    },
    {
      "Name" : "Mpasa Health Centre",
      "Type" : "Health Centre",
      "Region" : "South",
      "District" : "Phalombe",
      "Latitude" : -15.7579,
      "Longitude" : 35.61142
    },
    {
      "Name" : "Nambazo Health Centre",
      "Type" : "Health Centre",
      "Region" : "South",
      "District" : "Phalombe",
      "Latitude" : -15.55919,
      "Longitude" : 35.81566
    },
    {
      "Name" : "Nazombe Health Centre (GoGo)",
      "Type" : "Health Centre",
      "Region" : "South",
      "District" : "Phalombe",
      "Latitude" : -15.75233,
      "Longitude" : 35.77498
    },
    {
      "Name" : "Nkhulambe Health Centre",
      "Type" : "Health Centre",
      "Region" : "South",
      "District" : "Phalombe",
      "Latitude" : -15.85949,
      "Longitude" : 35.74751
    },
    {
      "Name" : "Phalombe Health Centre",
      "Type" : "Health Centre",
      "Region" : "South",
      "District" : "Phalombe",
      "Latitude" : -15.80677,
      "Longitude" : 35.64918
    },
    {
      "Name" : "Chiringa Maternity",
      "Type" : "Maternity",
      "Region" : "South",
      "District" : "Phalombe",
      "Latitude" : -15.77213,
      "Longitude" : 35.76965
    },
    {
      "Name" : "Holy Family Hospital",
      "Type" : "Other Hospital",
      "Region" : "South",
      "District" : "Phalombe",
      "Latitude" : -15.82471,
      "Longitude" : 35.61875
    },
    {
      "Name" : "Chiringa CHAM Health Centre",
      "Type" : "Health Centre",
      "Region" : "South",
      "District" : "Phalombe",
      "Latitude" : -15.76583,
      "Longitude" : 35.76216
    },
    {
      "Name" : "Mwanga Health Centre",
      "Type" : "Health Centre",
      "Region" : "South",
      "District" : "Phalombe",
      "Latitude" : -15.64632,
      "Longitude" : 35.53221
    },
    {
      "Name" : "Sukasanje Health Centre",
      "Type" : "Health Centre",
      "Region" : "South",
      "District" : "Phalombe",
      "Latitude" : -15.93038,
      "Longitude" : 35.76603
    },
    {
      "Name" : "Mulungu Alinafe Clinic",
      "Type" : "Clinic",
      "Region" : "South",
      "District" : "Phalombe",
      "Latitude" : -15.85719,
      "Longitude" : 35.81552
    },
    {
      "Name" : "Chikwawa District Hospital",
      "Type" : "District Hospital",
      "Region" : "South",
      "District" : "Chikwawa",
      "Latitude" : -16.0231,
      "Longitude" : 34.79346
    },
    {
      "Name" : "Ngabu Rural Hospital",
      "Type" : "Rural/Community Hospital",
      "Region" : "South",
      "District" : "Chikwawa",
      "Latitude" : -16.45928,
      "Longitude" : 34.89253
    },
    {
      "Name" : "Beleu Health Centre",
      "Type" : "Health Centre",
      "Region" : "South",
      "District" : "Chikwawa",
      "Latitude" : -16.15199,
      "Longitude" : 34.85376
    },
    {
      "Name" : "Chapananga Health Centre",
      "Type" : "Health Centre",
      "Region" : "South",
      "District" : "Chikwawa",
      "Latitude" : -16.00551,
      "Longitude" : 34.48567
    },
    {
      "Name" : "Chapwaila Health Centre",
      "Type" : "Health Centre",
      "Region" : "South",
      "District" : "Chikwawa",
      "Latitude" : -16.39842,
      "Longitude" : 34.77572
    },
    {
      "Name" : "Dolo Health Centre",
      "Type" : "Health Centre",
      "Region" : "South",
      "District" : "Chikwawa",
      "Latitude" : -16.55349,
      "Longitude" : 34.92423
    },
    {
      "Name" : "Gaga Health Centre",
      "Type" : "Health Centre",
      "Region" : "South",
      "District" : "Chikwawa",
      "Latitude" : -15.80678,
      "Longitude" : 34.36487
    },
    {
      "Name" : "Kakoma Health Centre",
      "Type" : "Health Centre",
      "Region" : "South",
      "District" : "Chikwawa",
      "Latitude" : -16.09819,
      "Longitude" : 34.62398
    },
    {
      "Name" : "Makhwira Health Centre",
      "Type" : "Health Centre",
      "Region" : "South",
      "District" : "Chikwawa",
      "Latitude" : -16.19483,
      "Longitude" : 35.01065
    },
    {
      "Name" : "Maperera Health Centre",
      "Type" : "Health Centre",
      "Region" : "South",
      "District" : "Chikwawa",
      "Latitude" : -16.10534,
      "Longitude" : 34.9157
    },
    {
      "Name" : "Mfera Health Centre",
      "Type" : "Health Centre",
      "Region" : "South",
      "District" : "Chikwawa",
      "Latitude" : -16.06818,
      "Longitude" : 34.86724
    },
    {
      "Name" : "Ndakwera Health Centre",
      "Type" : "Health Centre",
      "Region" : "South",
      "District" : "Chikwawa",
      "Latitude" : -16.22357,
      "Longitude" : 34.68896
    },
    {
      "Name" : "Nkumaniza Health Centre",
      "Type" : "Health Centre",
      "Region" : "South",
      "District" : "Chikwawa",
      "Latitude" : -16.47944,
      "Longitude" : 34.72431
    },
    {
      "Name" : "Kasinthula Dispensary",
      "Type" : "Dispensary",
      "Region" : "South",
      "District" : "Chikwawa",
      "Latitude" : -16.07416,
      "Longitude" : 34.81651
    },
    {
      "Name" : "Hunger Clinic",
      "Type" : "Clinic",
      "Region" : "South",
      "District" : "Chikwawa",
      "Latitude" : -16.27045,
      "Longitude" : 34.86368
    },
    {
      "Name" : "Kubalalika Health Post",
      "Type" : "Health Post",
      "Region" : "South",
      "District" : "Chikwawa",
      "Latitude" : -15.90796,
      "Longitude" : 34.39405
    },
    {
      "Name" : "Mitondo Health Post",
      "Type" : "Health Post",
      "Region" : "South",
      "District" : "Chikwawa",
      "Latitude" : -16.26884,
      "Longitude" : 35.05789
    },
    {
      "Name" : "Nkhate Health Post",
      "Type" : "Health Post",
      "Region" : "South",
      "District" : "Chikwawa",
      "Latitude" : -16.1467,
      "Longitude" : 34.95886
    },
    {
      "Name" : "St Montfort Hospital",
      "Type" : "Other Hospital",
      "Region" : "South",
      "District" : "Chikwawa",
      "Latitude" : -16.25716,
      "Longitude" : 34.86831
    },
    {
      "Name" : "Misomali Health Centre",
      "Type" : "Health Centre",
      "Region" : "South",
      "District" : "Chikwawa",
      "Latitude" : -16.03775,
      "Longitude" : 34.5372
    },
    {
      "Name" : "Ngabu SDA Health Centre",
      "Type" : "Health Centre",
      "Region" : "South",
      "District" : "Chikwawa",
      "Latitude" : -16.46516,
      "Longitude" : 34.87901
    },
    {
      "Name" : "Chanza, Edwin, Erapecha Clinic",
      "Type" : "Clinic",
      "Region" : "South",
      "District" : "Chikwawa",
      "Latitude" : -16.26044,
      "Longitude" : 34.86844
    },
    {
      "Name" : "Mabwera, Walson D. Chinyanje P",
      "Type" : "Clinic",
      "Region" : "South",
      "District" : "Chikwawa",
      "Latitude" : -16.04313,
      "Longitude" : 34.79894
    },
    {
      "Name" : "Mainjeni, Fyson W D. Fema Priv",
      "Type" : "Clinic",
      "Region" : "South",
      "District" : "Chikwawa",
      "Latitude" : -16.26676,
      "Longitude" : 35.06284
    },
    {
      "Name" : "Masache Private Clinic",
      "Type" : "Clinic",
      "Region" : "South",
      "District" : "Chikwawa",
      "Latitude" : -16.27028,
      "Longitude" : 34.87344
    },
    {
      "Name" : "Ngabu BLM Clinic",
      "Type" : "Clinic",
      "Region" : "South",
      "District" : "Chikwawa",
      "Latitude" : -16.46679,
      "Longitude" : 34.872
    },
    {
      "Name" : "Sucoma Clinic Illovo (Armumend",
      "Type" : "Clinic",
      "Region" : "South",
      "District" : "Chikwawa",
      "Latitude" : -16.40314,
      "Longitude" : 34.8832
    },
    {
      "Name" : "Sucoma Illovo Factory Clinic",
      "Type" : "Clinic",
      "Region" : "South",
      "District" : "Chikwawa",
      "Latitude" : -16.25773,
      "Longitude" : 34.89181
    },
    {
      "Name" : "SUCOMA Kalulu Clinic",
      "Type" : "Clinic",
      "Region" : "South",
      "District" : "Chikwawa",
      "Latitude" : -16.24144,
      "Longitude" : 34.91164
    },
    {
      "Name" : "SUCOMA Mangulenje Clinic",
      "Type" : "Clinic",
      "Region" : "South",
      "District" : "Chikwawa",
      "Latitude" : -16.22227,
      "Longitude" : 34.8544
    },
    {
      "Name" : "Sucoma/Mwanza/Illovo Clinic",
      "Type" : "Clinic",
      "Region" : "South",
      "District" : "Chikwawa",
      "Latitude" : -16.1894,
      "Longitude" : 34.88065
    },
    {
      "Name" : "SUCOMA Lengwe",
      "Type" : "Clinic",
      "Region" : "South",
      "District" : "Chikwawa",
      "Latitude" : -16.20038,
      "Longitude" : 34.79
    },
    {
      "Name" : "SUCOMA Mkombezi",
      "Type" : "Clinic",
      "Region" : "South",
      "District" : "Chikwawa",
      "Latitude" : -16.27633,
      "Longitude" : 34.88054
    },
    {
      "Name" : "Nsanje District Hospital",
      "Type" : "District Hospital",
      "Region" : "South",
      "District" : "Nsanje",
      "Latitude" : -16.91794,
      "Longitude" : 35.26001
    },
    {
      "Name" : "Kalemba Community Hospital",
      "Type" : "Rural/Community Hospital",
      "Region" : "South",
      "District" : "Nsanje",
      "Latitude" : -16.57572,
      "Longitude" : 35.11207
    },
    {
      "Name" : "Kamphata Health Post",
      "Type" : "Health Post",
      "Region" : "South",
      "District" : "Nsanje",
      "Latitude" : -17.0468,
      "Longitude" : 35.21658
    },
    {
      "Name" : "Makhanga Health Centre",
      "Type" : "Health Centre",
      "Region" : "South",
      "District" : "Nsanje",
      "Latitude" : -16.5215,
      "Longitude" : 35.17347
    },
    {
      "Name" : "Masenjere Health Centre",
      "Type" : "Health Centre",
      "Region" : "South",
      "District" : "Nsanje",
      "Latitude" : -16.33721,
      "Longitude" : 35.09671
    },
    {
      "Name" : "Mbenje Health Centre",
      "Type" : "Health Centre",
      "Region" : "South",
      "District" : "Nsanje",
      "Latitude" : -16.99464,
      "Longitude" : 35.22079
    },
    {
      "Name" : "Ndamera Health Centre",
      "Type" : "Health Centre",
      "Region" : "South",
      "District" : "Nsanje",
      "Latitude" : -17.09569,
      "Longitude" : 35.21902
    },
    {
      "Name" : "Nyamithuthu Health Centre",
      "Type" : "Health Centre",
      "Region" : "South",
      "District" : "Nsanje",
      "Latitude" : -16.68213,
      "Longitude" : 35.19821
    },
    {
      "Name" : "Phokera Health Centre",
      "Type" : "Health Centre",
      "Region" : "South",
      "District" : "Nsanje",
      "Latitude" : -16.62831,
      "Longitude" : 35.15663
    },
    {
      "Name" : "Sankhulani Health Centre",
      "Type" : "Health Centre",
      "Region" : "South",
      "District" : "Nsanje",
      "Latitude" : -16.456861,
      "Longitude" : 35.258889
    },
    {
      "Name" : "Sorgin Health Centre",
      "Type" : "Health Centre",
      "Region" : "South",
      "District" : "Nsanje",
      "Latitude" : -16.54278,
      "Longitude" : 35.01159
    },
    {
      "Name" : "Tengani Health Centre",
      "Type" : "Health Centre",
      "Region" : "South",
      "District" : "Nsanje",
      "Latitude" : -16.73308,
      "Longitude" : 35.27015
    },
    {
      "Name" : "Nkhande Dispensary",
      "Type" : "Dispensary",
      "Region" : "South",
      "District" : "Nsanje",
      "Latitude" : -17.11489,
      "Longitude" : 35.15688
    },
    {
      "Name" : "Kanyimbi Health Post",
      "Type" : "Health Post",
      "Region" : "South",
      "District" : "Nsanje",
      "Latitude" : -16.69453,
      "Longitude" : 34.967
    },
    {
      "Name" : "Mchacha Health Post",
      "Type" : "Health Post",
      "Region" : "South",
      "District" : "Nsanje",
      "Latitude" : -16.49151,
      "Longitude" : 35.15991
    },
    {
      "Name" : "Misamvu Health Post",
      "Type" : "Health Post",
      "Region" : "South",
      "District" : "Nsanje",
      "Latitude" : -16.76255,
      "Longitude" : 35.04739
    },
    {
      "Name" : "Mkango Health Post",
      "Type" : "Health Post",
      "Region" : "South",
      "District" : "Nsanje",
      "Latitude" : -16.82472,
      "Longitude" : 35.30408
    },
    {
      "Name" : "Mlolo Health Post",
      "Type" : "Health Post",
      "Region" : "South",
      "District" : "Nsanje",
      "Latitude" : -16.41959,
      "Longitude" : 35.1525
    },
    {
      "Name" : "Trinity Hospital",
      "Type" : "Other Hospital",
      "Region" : "South",
      "District" : "Nsanje",
      "Latitude" : -16.41919,
      "Longitude" : 35.17154
    },
    {
      "Name" : "Chididi Health Centre",
      "Type" : "Health Centre",
      "Region" : "South",
      "District" : "Nsanje",
      "Latitude" : -16.91495,
      "Longitude" : 35.17333
    },
    {
      "Name" : "Lulwe Health Centre",
      "Type" : "Health Centre",
      "Region" : "South",
      "District" : "Nsanje",
      "Latitude" : -17.08765,
      "Longitude" : 35.11415
    },
    {
      "Name" : "Tikondane Clinic",
      "Type" : "Clinic",
      "Region" : "South",
      "District" : "Nsanje",
      "Latitude" : -16.58035,
      "Longitude" : 35.10953
    },
    {
      "Name" : "Balaka District Hospital",
      "Type" : "District Hospital",
      "Region" : "South",
      "District" : "Balaka",
      "Latitude" : -14.98498,
      "Longitude" : 34.94959
    },
    {
      "Name" : "Chiendausiku Health Centre",
      "Type" : "Health Centre",
      "Region" : "South",
      "District" : "Balaka",
      "Latitude" : -15.01855,
      "Longitude" : 35.07653
    },
    {
      "Name" : "Kalembo Health Centre",
      "Type" : "Health Centre",
      "Region" : "South",
      "District" : "Balaka",
      "Latitude" : -14.84268,
      "Longitude" : 35.17081
    },
    {
      "Name" : "Kwitanda Health Centre",
      "Type" : "Health Centre",
      "Region" : "South",
      "District" : "Balaka",
      "Latitude" : -15.06495,
      "Longitude" : 35.093
    },
    {
      "Name" : "Mbera Health Centre",
      "Type" : "Health Centre",
      "Region" : "South",
      "District" : "Balaka",
      "Latitude" : -14.91088,
      "Longitude" : 35.05326
    },
    {
      "Name" : "Namanolo Health Centre",
      "Type" : "Health Centre",
      "Region" : "South",
      "District" : "Balaka",
      "Latitude" : -15.00071,
      "Longitude" : 35.19004
    },
    {
      "Name" : "Namdumbo Health  Centre",
      "Type" : "Health Centre",
      "Region" : "South",
      "District" : "Balaka",
      "Latitude" : -14.85169,
      "Longitude" : 35.22552
    },
    {
      "Name" : "Phimbi Health Centre",
      "Type" : "Health Centre",
      "Region" : "South",
      "District" : "Balaka",
      "Latitude" : -15.25075,
      "Longitude" : 35.10716
    },
    {
      "Name" : "Nambira Health Post",
      "Type" : "Health Post",
      "Region" : "South",
      "District" : "Balaka",
      "Latitude" : -14.80259,
      "Longitude" : 35.06411
    },
    {
      "Name" : "Comfort Clinic",
      "Type" : "Health Centre",
      "Region" : "South",
      "District" : "Balaka",
      "Latitude" : -15.00318,
      "Longitude" : 34.95244
    },
    {
      "Name" : "Kankao Health Centre",
      "Type" : "Health Centre",
      "Region" : "South",
      "District" : "Balaka",
      "Latitude" : -15.05425,
      "Longitude" : 34.92264
    },
    {
      "Name" : "Phalula Health Centre",
      "Type" : "Health Centre",
      "Region" : "South",
      "District" : "Balaka",
      "Latitude" : -15.22557,
      "Longitude" : 34.89322
    },
    {
      "Name" : "Ulongwe Health Centre",
      "Type" : "Health Centre",
      "Region" : "South",
      "District" : "Balaka",
      "Latitude" : -14.86247,
      "Longitude" : 35.17734
    },
    {
      "Name" : "Utale 1 Health Centre",
      "Type" : "Health Centre",
      "Region" : "South",
      "District" : "Balaka",
      "Latitude" : -15.17774,
      "Longitude" : 35.06424
    },
    {
      "Name" : "Utale 2 Health Centre",
      "Type" : "Health Centre",
      "Region" : "South",
      "District" : "Balaka",
      "Latitude" : -15.16981,
      "Longitude" : 35.07239
    },
    {
      "Name" : "Balaka Private Clinic",
      "Type" : "Clinic",
      "Region" : "South",
      "District" : "Balaka",
      "Latitude" : -14.98339,
      "Longitude" : 34.9617
    },
    {
      "Name" : "Chithandizo Private Clinic",
      "Type" : "Clinic",
      "Region" : "South",
      "District" : "Balaka",
      "Latitude" : -14.98717,
      "Longitude" : 34.95176
    },
    {
      "Name" : "Balaka BLM Clinic",
      "Type" : "Clinic",
      "Region" : "South",
      "District" : "Balaka",
      "Latitude" : -14.98876,
      "Longitude" : 34.95557
    },
    {
      "Name" : "Lisungwi Community Hospital",
      "Type" : "Rural/Community Hospital",
      "Region" : "South",
      "District" : "Neno",
      "Latitude" : -15.43557,
      "Longitude" : 34.77838
    },
    {
      "Name" : "Neno District Hospital",
      "Type" : "District Hospital",
      "Region" : "South",
      "District" : "Neno",
      "Latitude" : -15.39524,
      "Longitude" : 34.65349
    },
    {
      "Name" : "Chifunga Health Centre",
      "Type" : "Health Centre",
      "Region" : "South",
      "District" : "Neno",
      "Latitude" : -15.59825,
      "Longitude" : 34.69892
    },
    {
      "Name" : "Ligowe Health Centre",
      "Type" : "Health Centre",
      "Region" : "South",
      "District" : "Neno",
      "Latitude" : -15.47368,
      "Longitude" : 34.65182
    },
    {
      "Name" : "Luwani Health Centre",
      "Type" : "Health Centre",
      "Region" : "South",
      "District" : "Neno",
      "Latitude" : -15.47981,
      "Longitude" : 34.74241
    },
    {
      "Name" : "Magaleta Health Centre",
      "Type" : "Health Centre",
      "Region" : "South",
      "District" : "Neno",
      "Latitude" : -15.55083,
      "Longitude" : 34.62836
    },
    {
      "Name" : "Matandani Health Centre",
      "Type" : "Health Centre",
      "Region" : "South",
      "District" : "Neno",
      "Latitude" : -15.33071,
      "Longitude" : 34.65321
    },
    {
      "Name" : "Matope Health Centre",
      "Type" : "Health Centre",
      "Region" : "South",
      "District" : "Neno",
      "Latitude" : -15.3537,
      "Longitude" : 34.94732
    },
    {
      "Name" : "Neno Parish Health Centre",
      "Type" : "Health Centre",
      "Region" : "South",
      "District" : "Neno",
      "Latitude" : -15.43701,
      "Longitude" : 34.60843
    },
    {
      "Name" : "Nsambe Health Centre",
      "Type" : "Health Centre",
      "Region" : "South",
      "District" : "Neno",
      "Latitude" : -15.26135,
      "Longitude" : 34.6135
    },
    {
      "Name" : "Zalewa DAPP VCT Station",
      "Type" : "Clinic",
      "Region" : "South",
      "District" : "Neno",
      "Latitude" : -15.44995,
      "Longitude" : 34.8504
    },
    {
      "Name" : "Nkula Health Centre",
      "Type" : "Clinic",
      "Region" : "South",
      "District" : "Neno",
      "Latitude" : -15.52193,
      "Longitude" : 34.82512
    },
    {
      "Name" : "Chilumba Barracks",
      "Type" : "Health Centre",
      "Region" : "North",
      "District" : "Karonga",
      "Latitude" : -10.39021,
      "Longitude" : 34.208
    },
    {
      "Name" : "Wovwe Escom Clinic",
      "Type" : "Clinic",
      "Region" : "North",
      "District" : "Karonga",
      "Latitude" : -10.44389,
      "Longitude" : 34.08461
    },
    {
      "Name" : "Chombe Estate Dispensary",
      "Type" : "Dispensary",
      "Region" : "North",
      "District" : "Nkhata Bay",
      "Latitude" : -11.64771,
      "Longitude" : 34.21214
    },
    {
      "Name" : "Auction Holdings Clinic",
      "Type" : "Clinic",
      "Region" : "North",
      "District" : "Mzimba",
      "Latitude" : -11.46341,
      "Longitude" : 34.02053
    },
    {
      "Name" : "Moyale Barracks Clinics",
      "Type" : "Clinic",
      "Region" : "North",
      "District" : "Mzimba",
      "Latitude" : -11.456,
      "Longitude" : 34.03829
    },
    {
      "Name" : "Mzimba Prison",
      "Type" : "Clinic",
      "Region" : "North",
      "District" : "Mzimba",
      "Latitude" : -11.9107,
      "Longitude" : 33.58414
    },
    {
      "Name" : "Mzuzu Police Clinic",
      "Type" : "Clinic",
      "Region" : "North",
      "District" : "Mzimba",
      "Latitude" : -11.46211,
      "Longitude" : 34.02489
    },
    {
      "Name" : "Mzuzu Sobo Clinic",
      "Type" : "Clinic",
      "Region" : "North",
      "District" : "Mzimba",
      "Latitude" : -11.41853,
      "Longitude" : 34.00645
    },
    {
      "Name" : "Kasasa Clinic",
      "Type" : "Clinic",
      "Region" : "Central",
      "District" : "Nkhotakota",
      "Latitude" : -12.53753,
      "Longitude" : 34.11818
    },
    {
      "Name" : "Africa Leaf Clinic Kanengo",
      "Type" : "Clinic",
      "Region" : "Central",
      "District" : "Lilongwe",
      "Latitude" : -13.8898,
      "Longitude" : 33.80487
    },
    {
      "Name" : "Airwing Health Post",
      "Type" : "Dispensary",
      "Region" : "Central",
      "District" : "Lilongwe",
      "Latitude" : -13.96162,
      "Longitude" : 33.69679
    },
    {
      "Name" : "Alliance One Clinic",
      "Type" : "Clinic",
      "Region" : "Central",
      "District" : "Lilongwe",
      "Latitude" : -13.89571,
      "Longitude" : 33.80108
    },
    {
      "Name" : "Area 30 Police Clinic",
      "Type" : "Clinic",
      "Region" : "Central",
      "District" : "Lilongwe",
      "Latitude" : -13.9279,
      "Longitude" : 33.78419
    },
    {
      "Name" : "Auction Holdings Clinic",
      "Type" : "Clinic",
      "Region" : "Central",
      "District" : "Lilongwe",
      "Latitude" : -13.89089,
      "Longitude" : 33.79952
    },
    {
      "Name" : "Bunda College Clinic",
      "Type" : "Clinic",
      "Region" : "Central",
      "District" : "Lilongwe",
      "Latitude" : -14.18038,
      "Longitude" : 33.77554
    },
    {
      "Name" : "Carlsberg / Sobo Clinic Lilong",
      "Type" : "Clinic",
      "Region" : "Central",
      "District" : "Lilongwe",
      "Latitude" : -13.90107,
      "Longitude" : 33.796
    },
    {
      "Name" : "Kanengo Tobacco Processors Cli",
      "Type" : "Clinic",
      "Region" : "Central",
      "District" : "Lilongwe",
      "Latitude" : -13.902,
      "Longitude" : 33.80639
    },
    {
      "Name" : "Limbe Leaf Tobacco Co. Ltd. Cl",
      "Type" : "Clinic",
      "Region" : "Central",
      "District" : "Lilongwe",
      "Latitude" : -13.89319,
      "Longitude" : 33.80263
    },
    {
      "Name" : "MoH Hq",
      "Type" : "Clinic",
      "Region" : "Central",
      "District" : "Lilongwe",
      "Latitude" : -13.94628,
      "Longitude" : 33.78859
    },
    {
      "Name" : "Macro Lilongwe",
      "Type" : "Clinic",
      "Region" : "Central",
      "District" : "Lilongwe",
      "Latitude" : -13.99819,
      "Longitude" : 33.776
    },
    {
      "Name" : "Natural Resources College Clin",
      "Type" : "Clinic",
      "Region" : "Central",
      "District" : "Lilongwe",
      "Latitude" : -14.02247,
      "Longitude" : 33.67422
    },
    {
      "Name" : "New state house Clinic",
      "Type" : "Clinic",
      "Region" : "Central",
      "District" : "Lilongwe",
      "Latitude" : -13.96051,
      "Longitude" : 33.85089
    },
    {
      "Name" : "Reserve Bank of Malawi Clinic",
      "Type" : "Clinic",
      "Region" : "Central",
      "District" : "Lilongwe",
      "Latitude" : -13.96335,
      "Longitude" : 33.78926
    },
    {
      "Name" : "ITES Medical Clinic",
      "Type" : "Clinic",
      "Region" : "Central",
      "District" : "Mchinji",
      "Latitude" : -13.7951,
      "Longitude" : 32.89124
    },
    {
      "Name" : "Jumpha Private Clinic",
      "Type" : "Clinic",
      "Region" : "Central",
      "District" : "Mchinji",
      "Latitude" : -13.92459,
      "Longitude" : 33.22757
    },
    {
      "Name" : "Malalwi Army Marine Dispensary",
      "Type" : "Dispensary",
      "Region" : "South",
      "District" : "Mangochi",
      "Latitude" : -14.073,
      "Longitude" : 34.91684
    },
    {
      "Name" : "Ngapani Sable Clinic",
      "Type" : "Clinic",
      "Region" : "South",
      "District" : "Mangochi",
      "Latitude" : -14.0296,
      "Longitude" : 35.33773
    },
    {
      "Name" : "St. Johns Seminary",
      "Type" : "Clinic",
      "Region" : "South",
      "District" : "Mangochi",
      "Latitude" : -14.54678,
      "Longitude" : 35.17842
    },
    {
      "Name" : "Chancellor College",
      "Type" : "Clinic",
      "Region" : "South",
      "District" : "Zomba",
      "Latitude" : -15.38533,
      "Longitude" : 35.33213
    },
    {
      "Name" : "Zomba Central Prison Clinic",
      "Type" : "Clinic",
      "Region" : "South",
      "District" : "Zomba",
      "Latitude" : -15.39611,
      "Longitude" : 35.31248
    },
    {
      "Name" : "Auction Holdings Clinic",
      "Type" : "Clinic",
      "Region" : "South",
      "District" : "Blantyre",
      "Latitude" : -15.81195,
      "Longitude" : 35.06417
    },
    {
      "Name" : "Blantyre Water Board - Mudi",
      "Type" : "Clinic",
      "Region" : "South",
      "District" : "Blantyre",
      "Latitude" : -15.7953,
      "Longitude" : 35.03811
    },
    {
      "Name" : "Blantyre Water Board - Walker'",
      "Type" : "Clinic",
      "Region" : "South",
      "District" : "Blantyre",
      "Latitude" : -15.51493,
      "Longitude" : 34.83359
    },
    {
      "Name" : "Carlsberg Brewery Malawi Ltd.",
      "Type" : "Clinic",
      "Region" : "South",
      "District" : "Blantyre",
      "Latitude" : -15.79367,
      "Longitude" : 35.03468
    },
    {
      "Name" : "Central East African Railways",
      "Type" : "Clinic",
      "Region" : "South",
      "District" : "Blantyre",
      "Latitude" : -15.81536,
      "Longitude" : 35.0633
    },
    {
      "Name" : "Chichiri ESCOM Clinic",
      "Type" : "Clinic",
      "Region" : "South",
      "District" : "Blantyre",
      "Latitude" : -15.79342,
      "Longitude" : 35.02444
    },
    {
      "Name" : "Chichiri Prison",
      "Type" : "Clinic",
      "Region" : "South",
      "District" : "Blantyre",
      "Latitude" : -15.80577,
      "Longitude" : 35.03242
    },
    {
      "Name" : "David Whitehead",
      "Type" : "Clinic",
      "Region" : "South",
      "District" : "Blantyre",
      "Latitude" : -15.79096,
      "Longitude" : 35.03374
    },
    {
      "Name" : "Limbe Leaf Tobacco Clinic Limb",
      "Type" : "Clinic",
      "Region" : "South",
      "District" : "Blantyre",
      "Latitude" : -15.81361,
      "Longitude" : 35.07035
    },
    {
      "Name" : "Polytechnic",
      "Type" : "Clinic",
      "Region" : "South",
      "District" : "Blantyre",
      "Latitude" : -15.80207,
      "Longitude" : 35.02718
    },
    {
      "Name" : "Portland",
      "Type" : "Clinic",
      "Region" : "South",
      "District" : "Blantyre",
      "Latitude" : -15.79236,
      "Longitude" : 35.02816
    },
    {
      "Name" : "Press Corporation Ltd. Clinic",
      "Type" : "Clinic",
      "Region" : "South",
      "District" : "Blantyre",
      "Latitude" : -15.762,
      "Longitude" : 35.02311
    },
    {
      "Name" : "Unilever South East Company Cl",
      "Type" : "Clinic",
      "Region" : "South",
      "District" : "Blantyre",
      "Latitude" : -15.80439,
      "Longitude" : 35.06091
    },
    {
      "Name" : "Chisambo Estate Clinic",
      "Type" : "Clinic",
      "Region" : "South",
      "District" : "Mulanje",
      "Latitude" : -16.03822,
      "Longitude" : 35.70899
    },
    {
      "Name" : "Eldorado Estate Clinic",
      "Type" : "Clinic",
      "Region" : "South",
      "District" : "Mulanje",
      "Latitude" : -16.06679,
      "Longitude" : 35.6139
    },
    {
      "Name" : "Esparanza Estate Clinic",
      "Type" : "Clinic",
      "Region" : "South",
      "District" : "Mulanje",
      "Latitude" : -16.03395,
      "Longitude" : 35.50475
    },
    {
      "Name" : "Glenorchy Estate Clinic",
      "Type" : "Clinic",
      "Region" : "South",
      "District" : "Mulanje",
      "Latitude" : -15.9833,
      "Longitude" : 35.48386
    },
    {
      "Name" : "Lauderdale Estate Clinic",
      "Type" : "Clinic",
      "Region" : "South",
      "District" : "Mulanje",
      "Latitude" : -16.04331,
      "Longitude" : 35.53515
    },
    {
      "Name" : "Likanga Estate Clinic",
      "Type" : "Clinic",
      "Region" : "South",
      "District" : "Mulanje",
      "Latitude" : -16.08306,
      "Longitude" : 35.58609
    },
    {
      "Name" : "Limbuli Estate Clinic",
      "Type" : "Clinic",
      "Region" : "South",
      "District" : "Mulanje",
      "Latitude" : -16.05504,
      "Longitude" : 35.72129
    },
    {
      "Name" : "Minimini Estate Clinic",
      "Type" : "Clinic",
      "Region" : "South",
      "District" : "Mulanje",
      "Latitude" : -16.05676,
      "Longitude" : 35.58444
    },
    {
      "Name" : "Phwazi Estate Clinic",
      "Type" : "Clinic",
      "Region" : "South",
      "District" : "Mulanje",
      "Latitude" : -16.01792,
      "Longitude" : 35.68294
    },
    {
      "Name" : "Ruo Estate Clinic",
      "Type" : "Clinic",
      "Region" : "South",
      "District" : "Mulanje",
      "Latitude" : -16.08964,
      "Longitude" : 35.66507
    },
    {
      "Name" : "Sayama Clinic",
      "Type" : "Clinic",
      "Region" : "South",
      "District" : "Mulanje",
      "Latitude" : -16.07107,
      "Longitude" : 35.5471
    },
    {
      "Name" : "Thornwood Estate Clinic",
      "Type" : "Clinic",
      "Region" : "South",
      "District" : "Mulanje",
      "Latitude" : -16.06936,
      "Longitude" : 35.63033
    },
    {
      "Name" : "Kapichira Clinic",
      "Type" : "Clinic",
      "Region" : "South",
      "District" : "Chikwawa",
      "Latitude" : -15.89505,
      "Longitude" : 34.7577
    },
    {
      "Name" : "Good Health Private Clinic",
      "Type" : "Clinic",
      "Region" : "Central",
      "District" : "Lilongwe",
      "Latitude" : -13.94332,
      "Longitude" : 33.82
    },
    {
      "Name" : "St. Louis Private Clinic",
      "Type" : "Clinic",
      "Region" : "Central",
      "District" : "Lilongwe",
      "Latitude" : -13.93157,
      "Longitude" : 33.76995
    },
    {
      "Name" : "Thoto Dispensary",
      "Type" : "Dispensary",
      "Region" : "North",
      "District" : "Nkhata Bay",
      "Latitude" : -11.45315,
      "Longitude" : 34.27732
    },
    {
      "Name" : "Bethsaida Hospital",
      "Type" : "Other Hospital",
      "Region" : "Central",
      "District" : "Lilongwe",
      "Latitude" : -13.93387,
      "Longitude" : 33.79202
    },
    {
      "Name" : "Chithebe Health Centre",
      "Type" : "Health Centre",
      "Region" : "South",
      "District" : "Thyolo",
      "Latitude" : -16.00218,
      "Longitude" : 35.01294
    },
    {
      "Name" : "Madalitso Private Clinic",
      "Type" : "Clinic",
      "Region" : "Central",
      "District" : "Mchinji",
      "Latitude" : -13.42256,
      "Longitude" : 33.11103
    },
    {
      "Name" : "Medicare Private Hospital",
      "Type" : "Other Hospital",
      "Region" : "South",
      "District" : "Blantyre",
      "Latitude" : -15.79648,
      "Longitude" : 35.007
    },
    {
      "Name" : "Kadidi Health Centre",
      "Type" : "Health Centre",
      "Region" : "South",
      "District" : "Blantyre",
      "Latitude" : -15.66083,
      "Longitude" : 35.02212
    },
    {
      "Name" : "Lisa Private Clinic",
      "Type" : "Clinic",
      "Region" : "Central",
      "District" : "Kasungu",
      "Latitude" : -13.43941,
      "Longitude" : 33.39342
    },
    {
      "Name" : "Monekera Private Clinic",
      "Type" : "Clinic",
      "Region" : "South",
      "District" : "Blantyre",
      "Latitude" : -15.83527,
      "Longitude" : 35.0083
    },
    {
      "Name" : "Matchereza Health Post",
      "Type" : "Health Post",
      "Region" : "Central",
      "District" : "Ntcheu",
      "Latitude" : -15.20675,
      "Longitude" : 34.8479
    },
    {
      "Name" : "St. Lucious Private Clinic",
      "Type" : "Clinic",
      "Region" : "South",
      "District" : "Chikwawa",
      "Latitude" : -16.40459,
      "Longitude" : 34.86209
    },
    {
      "Name" : "Mota-Engil Clinic - Mkwinda Ca",
      "Type" : "Clinic",
      "Region" : "South",
      "District" : "Neno",
      "Latitude" : -15.41426,
      "Longitude" : 34.82429
    }
  ]