[
    {
      "Name" : "AS SALAAM",
      "Status" : "Functional",
      "Village" : "Changamire I",
      "District" : "Mangochi",
      "Region" : "South",
      "FacilityType" : "Health Centre",
      "ControllingAgency" : "Al Baraka Charity Trust (ACT)",
      "ContactName" : "Makkawi Elnour",
      "Phone" : 1599651,
      "Email" : "makkawinour07@yahoo.com",
      "Cluster" : "AS Salaam",
      "Longitude" : 35.192232,
      "Latitude" : -14.545418
    },
    {
      "Name" : "BLANTYRE ADVENTIST",
      "Status" : "Functional",
      "Village" : "Blantyre City",
      "District" : "Blantyre",
      "Region" : "South",
      "FacilityType" : "Hospital",
      "ControllingAgency" : "CHAM",
      "ContactName" : "Kirby Kasinja",
      "Phone" : 1820488,
      "Email" : "bah.hosp@yahoo.com",
      "Cluster" : "Blantyre Adventist",
      "Longitude" : 35.003089,
      "Latitude" : -15.782349
    },
    {
      "Name" : "QUEEN ELIZABETH",
      "Status" : "Functional",
      "Village" : "Matenje",
      "District" : "Blantyre",
      "Region" : "Central",
      "FacilityType" : "Hospital",
      "ControllingAgency" : "MoH",
      "ContactName" : "Andrew Gonani",
      "Phone" : 1874333,
      "Email" : "queenshospital@globe.mw.net",
      "Cluster" : "Queen Elizabeth",
      "Longitude" : 35.021451,
      "Latitude" : -15.802407
    },
    {
      "Name" : "MGWELE",
      "Status" : "Functional",
      "Village" : "Mgwele",
      "District" : "Dedza",
      "Region" : "Central",
      "FacilityType" : "Village Clinic",
      "ControllingAgency" : "MoH",
      "ContactName" : "Flora Julius",
      "Phone" : 111553823,
      "Email" : "N/A",
      "Cluster" : "Chongoni",
      "Longitude" : 34.306343,
      "Latitude" : -14.325596
    },
    {
      "Name" : "MGWELE",
      "Status" : "Functional",
      "Village" : "Mgwele",
      "District" : "Dedza",
      "Region" : "South",
      "FacilityType" : "Outreach",
      "ControllingAgency" : "MoH",
      "ContactName" : "Flora Julius",
      "Phone" : 111553823,
      "Email" : "N/A",
      "Cluster" : "Chongoni",
      "Longitude" : 34.306343,
      "Latitude" : -14.325596
    },
    {
      "Name" : "PHIRILONGWE",
      "Status" : "Functional",
      "Village" : "Malopa II",
      "District" : "Mangochi",
      "Region" : "South",
      "FacilityType" : "Health Centre",
      "ControllingAgency" : "MoH",
      "ContactName" : "Anthony Kasiya",
      "Phone" : 111558086,
      "Email" : "N/A",
      "Cluster" : "Phirilongwe",
      "Longitude" : 34.898391,
      "Latitude" : -14.588087
    },
    {
      "Name" : "SUWENI",
      "Status" : "Functional",
      "Village" : "Suweni",
      "District" : "Chikwawa",
      "Region" : "South",
      "FacilityType" : "Outreach",
      "ControllingAgency" : "MoH",
      "ContactName" : "Aubrey Makwasa",
      "Phone" : 111947383,
      "Email" : "N/A",
      "Cluster" : "Ndakwera",
      "Longitude" : 34.643247,
      "Latitude" : -16.242628
    },
    {
      "Name" : "SUWENI",
      "Status" : "Functional",
      "Village" : "Suweni",
      "District" : "Chikwawa",
      "Region" : "South",
      "FacilityType" : "Village Clinic",
      "ControllingAgency" : "MoH",
      "ContactName" : "Aubrey Makwasa",
      "Phone" : 111947383,
      "Email" : "N/A",
      "Cluster" : "Ndakwera",
      "Longitude" : 34.643247,
      "Latitude" : -16.242628
    },
    {
      "Name" : "MGWEDULA",
      "Status" : "Functional",
      "Village" : "Mgwedula",
      "District" : "Mwanza",
      "Region" : "South",
      "FacilityType" : "Outreach",
      "ControllingAgency" : "MoH",
      "ContactName" : "Charles Kombo",
      "Phone" : 880299113,
      "Email" : "N/A",
      "Cluster" : "Thambani",
      "Longitude" : 34.403128,
      "Latitude" : -15.756422
    },
    {
      "Name" : "CHINGAZI",
      "Status" : "Functional",
      "Village" : "Mandeule",
      "District" : "Phalombe",
      "Region" : "South",
      "FacilityType" : "Outreach",
      "ControllingAgency" : "MoH",
      "ContactName" : "Henry Kadzuwa",
      "Phone" : 880440914,
      "Email" : "N/A",
      "Cluster" : "Migowi",
      "Longitude" : 35.664502,
      "Latitude" : -15.696688
    },
    {
      "Name" : "CHINGAZI",
      "Status" : "Non Functional",
      "Village" : "Mandeule",
      "District" : "Phalombe",
      "Region" : "South",
      "FacilityType" : "Village Clinic",
      "ControllingAgency" : "MoH",
      "ContactName" : "Henry Kadzuwa",
      "Phone" : 880440914,
      "Email" : "N/A",
      "Cluster" : "Migowi",
      "Longitude" : 35.664502,
      "Latitude" : -15.696688
    },
    {
      "Name" : "KALEWA",
      "Status" : "Functional",
      "Village" : "Mwaiwathu",
      "District" : "Neno",
      "Region" : "South",
      "FacilityType" : "Outreach",
      "ControllingAgency" : "MoH",
      "ContactName" : "Michael Matchado",
      "Phone" : 880497779,
      "Email" : "N/A",
      "Cluster" : "Magareta",
      "Longitude" : 34.587266,
      "Latitude" : -15.592447
    },
    {
      "Name" : "GONTHI",
      "Status" : "Functional",
      "Village" : "Gonthi",
      "District" : "Neno",
      "Region" : "South",
      "FacilityType" : "Outreach",
      "ControllingAgency" : "MoH",
      "ContactName" : "Michael Matchado",
      "Phone" : 880497779,
      "Email" : "N/A",
      "Cluster" : "Magareta",
      "Longitude" : 34.583387,
      "Latitude" : -15.541576
    },
    {
      "Name" : "GONTHI",
      "Status" : "Functional",
      "Village" : "Gonthi",
      "District" : "Neno",
      "Region" : "North ",
      "FacilityType" : "Village Clinic",
      "ControllingAgency" : "MoH",
      "ContactName" : "Michael Matchado",
      "Phone" : 880497779,
      "Email" : "N/A",
      "Cluster" : "Magareta",
      "Longitude" : 34.583387,
      "Latitude" : -15.541576
    },
    {
      "Name" : "LWAZI",
      "Status" : "Functional",
      "Village" : "Kamtambo",
      "District" : "Nkhata Bay",
      "Region" : "South",
      "FacilityType" : "Health Centre",
      "ControllingAgency" : "CHAM",
      "ContactName" : "John Chibaka",
      "Phone" : 881004576,
      "Email" : "N/A",
      "Cluster" : "Lwazi",
      "Longitude" : 34.151186,
      "Latitude" : -11.518677
    },
    {
      "Name" : "CHANGADEYA",
      "Status" : "Functional",
      "Village" : "Changadeya",
      "District" : "Chikwawa",
      "Region" : "South",
      "FacilityType" : "Outreach",
      "ControllingAgency" : "CHAM",
      "ContactName" : "Danken Nyalugwe",
      "Phone" : 881006780,
      "Email" : "N/A",
      "Cluster" : "Misomali",
      "Longitude" : 34.575999,
      "Latitude" : -16.041858
    },
    {
      "Name" : "CHANGADEYA",
      "Status" : "Functional",
      "Village" : "Changadeya",
      "District" : "Chikwawa",
      "Region" : "South",
      "FacilityType" : "Village Clinic",
      "ControllingAgency" : "MoH",
      "ContactName" : "Danken Nyalugwe",
      "Phone" : 881006780,
      "Email" : "N/A",
      "Cluster" : "Misomali",
      "Longitude" : 34.575999,
      "Latitude" : -16.041858
    },
    {
      "Name" : "MKAMWANA",
      "Status" : "Functional",
      "Village" : "Mkamwana",
      "District" : "Balaka",
      "Region" : "South",
      "FacilityType" : "Outreach",
      "ControllingAgency" : "CHAM",
      "ContactName" : "Spencer Chisama",
      "Phone" : 881007560,
      "Email" : "N/A",
      "Cluster" : "Ulongwe",
      "Longitude" : 35.219673,
      "Latitude" : -14.873683
    },
    {
      "Name" : "MKAMWANA",
      "Status" : "Functional",
      "Village" : "Mkamwana",
      "District" : "Balaka",
      "Region" : "Central",
      "FacilityType" : "Village Clinic",
      "ControllingAgency" : "MoH",
      "ContactName" : "Spencer Chisama",
      "Phone" : 881007560,
      "Email" : "N/A",
      "Cluster" : "Ulongwe",
      "Longitude" : 35.219673,
      "Latitude" : -14.873683
    },
    {
      "Name" : "CHEZI",
      "Status" : "Functional",
      "Village" : "Kavala",
      "District" : "Dowa",
      "Region" : "South",
      "FacilityType" : "Health Centre",
      "ControllingAgency" : "CHAM",
      "ContactName" : "Jolly Orathumpurathu",
      "Phone" : 881011288,
      "Email" : "N/A",
      "Cluster" : "Chezi",
      "Longitude" : 34.037036,
      "Latitude" : -13.725506
    },
    {
      "Name" : "EHAWI",
      "Status" : "Functional",
      "Village" : "Ehawi",
      "District" : "Zomba",
      "Region" : "North ",
      "FacilityType" : "Outreach",
      "ControllingAgency" : "MoH",
      "ContactName" : "Vincent Nsikita",
      "Phone" : 881012285,
      "Email" : "N/A",
      "Cluster" : "Nasawa",
      "Longitude" : 35.362379,
      "Latitude" : -15.666997
    },
    {
      "Name" : "KAMWANKHUKU",
      "Status" : "Functional",
      "Village" : "Saulos Ngulube",
      "District" : "Mzimba",
      "Region" : "North ",
      "FacilityType" : "Village Clinic",
      "ControllingAgency" : "MoH",
      "ContactName" : "Milliam Chipofya",
      "Phone" : 881013028,
      "Email" : "N/A",
      "Cluster" : "Euthini",
      "Longitude" : 33.383079,
      "Latitude" : -11.445297
    },
    {
      "Name" : "KAMWANKHUKU",
      "Status" : "Functional",
      "Village" : "Saulos Ngulube",
      "District" : "Mzimba",
      "Region" : "South",
      "FacilityType" : "Outreach",
      "ControllingAgency" : "MoH",
      "ContactName" : "Milliam Chipofya",
      "Phone" : 881013028,
      "Email" : "N/A",
      "Cluster" : "Euthini",
      "Longitude" : 33.383079,
      "Latitude" : -11.445297
    },
    {
      "Name" : "DYERATU",
      "Status" : "Functional",
      "Village" : "Kabudula",
      "District" : "Chikwawa",
      "Region" : "Central",
      "FacilityType" : "Outreach",
      "ControllingAgency" : "MoH",
      "ContactName" : "Beatrice Fikani",
      "Phone" : 881013186,
      "Email" : "N/A",
      "Cluster" : "Chikwawa DH",
      "Longitude" : 34.799007,
      "Latitude" : -16.043103
    },
    {
      "Name" : "TCHAWALE I",
      "Status" : "Functional",
      "Village" : "Tchawale",
      "District" : "Dowa",
      "Region" : "Central",
      "FacilityType" : "Outreach",
      "ControllingAgency" : "MoH",
      "ContactName" : "Chikumbutso Ndalamira",
      "Phone" : 881015115,
      "Email" : "N/A",
      "Cluster" : "Mponela",
      "Longitude" : 33.766136,
      "Latitude" : -13.479157
    },
    {
      "Name" : "TCHAWALE I",
      "Status" : "Functional",
      "Village" : "Tchawale",
      "District" : "Dowa",
      "Region" : "Central",
      "FacilityType" : "Village Clinic",
      "ControllingAgency" : "MoH",
      "ContactName" : "Chikumbutso Ndalamira",
      "Phone" : 881015115,
      "Email" : "N/A",
      "Cluster" : "Mponela",
      "Longitude" : 33.766136,
      "Latitude" : -13.479157
    },
    {
      "Name" : "CHIGUMUKIRE",
      "Status" : "Functional",
      "Village" : "Dalamkwanda",
      "District" : "Salima",
      "Region" : "Central",
      "FacilityType" : "Outreach",
      "ControllingAgency" : "CHAM",
      "ContactName" : "Isaac Mhango",
      "Phone" : 881017466,
      "Email" : "N/A",
      "Cluster" : "Baptist",
      "Longitude" : 34.618668,
      "Latitude" : -13.708581
    },
    {
      "Name" : "MCHENGAWAMOTO",
      "Status" : "Functional",
      "Village" : "Dalamkwanda",
      "District" : "Salima",
      "Region" : "South",
      "FacilityType" : "Outreach",
      "ControllingAgency" : "CHAM",
      "ContactName" : "Isaac Mhango",
      "Phone" : 881017466,
      "Email" : "N/A",
      "Cluster" : "Baptist",
      "Longitude" : 34.622803,
      "Latitude" : -13.720158
    },
    {
      "Name" : "TENGANI",
      "Status" : "Functional",
      "Village" : "Chikunkhu",
      "District" : "Nsanje",
      "Region" : "South",
      "FacilityType" : "Health Centre",
      "ControllingAgency" : "MoH",
      "ContactName" : "Andrew Likoya",
      "Phone" : 881023009,
      "Email" : "N/A",
      "Cluster" : "Tengani ",
      "Longitude" : 35.270279,
      "Latitude" : -16.732827
    },
    {
      "Name" : "MULANJE DH",
      "Status" : "Functional",
      "Village" : "Njedza",
      "District" : "Mulanje",
      "Region" : "Central",
      "FacilityType" : "Hospital",
      "ControllingAgency" : "MoH",
      "ContactName" : "Khuliyena Kabwere",
      "Phone" : 881023903,
      "Email" : "khuliyena@gmail.com",
      "Cluster" : "Mulanje DH",
      "Longitude" : 35.507722,
      "Latitude" : -16.025615
    },
    {
      "Name" : "CHIMUTU I",
      "Status" : "Functional",
      "Village" : "Mlongoti",
      "District" : "Lilongwe",
      "Region" : "Central",
      "FacilityType" : "Village Clinic",
      "ControllingAgency" : "MoH",
      "ContactName" : "Armstone Mnjogo",
      "Phone" : 881024478,
      "Email" : "N/A",
      "Cluster" : "Chiwamba",
      "Longitude" : 33.997414,
      "Latitude" : -13.889593
    },
    {
      "Name" : "MSERU",
      "Status" : "Functional",
      "Village" : "Mseru",
      "District" : "Lilongwe",
      "Region" : "Central",
      "FacilityType" : "Outreach",
      "ControllingAgency" : "MoH",
      "ContactName" : "Nelson Chikadza",
      "Phone" : 881025777,
      "Email" : "N/A",
      "Cluster" : "Chileka",
      "Longitude" : 33.357993,
      "Latitude" : -14.066
    },
    {
      "Name" : "MSERU",
      "Status" : "Functional",
      "Village" : "Mseru",
      "District" : "Lilongwe",
      "Region" : "Central",
      "FacilityType" : "Village Clinic",
      "ControllingAgency" : "MoH",
      "ContactName" : "Nelson Chikadza",
      "Phone" : 881025777,
      "Email" : "N/A",
      "Cluster" : "Chileka",
      "Longitude" : 33.357993,
      "Latitude" : -14.066
    },
    {
      "Name" : "MWAZIMBA",
      "Status" : "Functional",
      "Village" : "Mwazimba",
      "District" : "Dedza",
      "Region" : "Central",
      "FacilityType" : "Village Clinic",
      "ControllingAgency" : "MoH",
      "ContactName" : "Francis Yekha",
      "Phone" : 881026131,
      "Email" : "N/A",
      "Cluster" : "Kaphuka",
      "Longitude" : 34.237423,
      "Latitude" : -14.201526
    },
    {
      "Name" : "KAPOCHE",
      "Status" : "Functional",
      "Village" : "Chindenga",
      "District" : "Dedza",
      "Region" : "South",
      "FacilityType" : "Outreach",
      "ControllingAgency" : "MoH",
      "ContactName" : "Francis Yekha",
      "Phone" : 881026131,
      "Email" : "N/A",
      "Cluster" : "Kaphuka",
      "Longitude" : 34.244803,
      "Latitude" : -14.195735
    },
    {
      "Name" : "MASACHE",
      "Status" : "Functional",
      "Village" : "Masache",
      "District" : "Chikwawa",
      "Region" : "South",
      "FacilityType" : "Outreach",
      "ControllingAgency" : "MoH",
      "ContactName" : "Anneti Seleman",
      "Phone" : 881029301,
      "Email" : "N/A",
      "Cluster" : "Dolo",
      "Longitude" : 34.946371,
      "Latitude" : -16.569401
    },
    {
      "Name" : "MASACHE",
      "Status" : "Functional",
      "Village" : "Masache",
      "District" : "Chikwawa",
      "Region" : "South",
      "FacilityType" : "Village Clinic",
      "ControllingAgency" : "MoH",
      "ContactName" : "Anneti Seleman",
      "Phone" : 881029301,
      "Email" : "N/A",
      "Cluster" : "Dolo",
      "Longitude" : 34.946371,
      "Latitude" : -16.569401
    },
    {
      "Name" : "DONKEN",
      "Status" : "Functional",
      "Village" : "Donken",
      "District" : "Mwanza",
      "Region" : "South",
      "FacilityType" : "Outreach",
      "ControllingAgency" : "MoH",
      "ContactName" : "George Mulanje",
      "Phone" : 881030051,
      "Email" : "N/A",
      "Cluster" : "Kunenekude",
      "Longitude" : 34.50906,
      "Latitude" : -15.508595
    },
    {
      "Name" : "DONKEN",
      "Status" : "Functional",
      "Village" : "Donken",
      "District" : "Mwanza",
      "Region" : "South",
      "FacilityType" : "Village Clinic",
      "ControllingAgency" : "MoH",
      "ContactName" : "George Mulanje",
      "Phone" : 881030051,
      "Email" : "N/A",
      "Cluster" : "Kunenekude",
      "Longitude" : 34.50906,
      "Latitude" : -15.508595
    },
    {
      "Name" : "NSANJA",
      "Status" : "Functional",
      "Village" : "Nsanja",
      "District" : "Balaka",
      "Region" : "South",
      "FacilityType" : "Outreach",
      "ControllingAgency" : "MoH",
      "ContactName" : "Semu Chiotcha",
      "Phone" : 881030317,
      "Email" : "N/A",
      "Cluster" : "Mbera",
      "Longitude" : 35.026401,
      "Latitude" : -14.898832
    },
    {
      "Name" : "NSANJA",
      "Status" : "Functional",
      "Village" : "Nsanja",
      "District" : "Balaka",
      "Region" : "Central",
      "FacilityType" : "Village Clinic",
      "ControllingAgency" : "MoH",
      "ContactName" : "Semu Chiotcha",
      "Phone" : 881030317,
      "Email" : "N/A",
      "Cluster" : "Mbera",
      "Longitude" : 35.026401,
      "Latitude" : -14.898832
    },
    {
      "Name" : "BIWI",
      "Status" : "Functional",
      "Village" : "Biwi",
      "District" : "Lilongwe",
      "Region" : "South",
      "FacilityType" : "Outreach",
      "ControllingAgency" : "MoH",
      "ContactName" : "Linda Mabedi",
      "Phone" : 881030483,
      "Email" : "N/A",
      "Cluster" : "Lilongwe City Council",
      "Longitude" : 33.79138,
      "Latitude" : -13.99669
    },
    {
      "Name" : "CHAGWIRAUTA",
      "Status" : "Functional",
      "Village" : "Chagwirauta ",
      "District" : "Blantyre",
      "Region" : "South",
      "FacilityType" : "Village Clinic",
      "ControllingAgency" : "MoH",
      "ContactName" : "Chiyanjano Chilombo",
      "Phone" : 881033389,
      "Email" : "N/A",
      "Cluster" : "Chabvala",
      "Longitude" : 34.858251,
      "Latitude" : -15.807708
    },
    {
      "Name" : "MWAMADI",
      "Status" : "Functional",
      "Village" : "Mwamadi",
      "District" : "Machinga",
      "Region" : "South",
      "FacilityType" : "Outreach",
      "ControllingAgency" : "MoH",
      "ContactName" : "Jimmy Mtukula",
      "Phone" : 881034529,
      "Email" : "N/A",
      "Cluster" : "Namanja",
      "Longitude" : 35.596285,
      "Latitude" : -14.935357
    },
    {
      "Name" : "MWAMADI",
      "Status" : "Functional",
      "Village" : "Mwamadi",
      "District" : "Machinga",
      "Region" : "South",
      "FacilityType" : "Village Clinic",
      "ControllingAgency" : "MoH",
      "ContactName" : "Jimmy Mtukula",
      "Phone" : 881034529,
      "Email" : "N/A",
      "Cluster" : "Namanja",
      "Longitude" : 35.596285,
      "Latitude" : -14.935357
    },
    {
      "Name" : "NSOLOMBA",
      "Status" : "Functional",
      "Village" : "Nsolomba",
      "District" : "Machinga",
      "Region" : "South",
      "FacilityType" : "Outreach",
      "ControllingAgency" : "MoH",
      "ContactName" : "Jimmy Mtukula",
      "Phone" : 881034529,
      "Email" : "N/A",
      "Cluster" : "Chapusa",
      "Longitude" : 35.612015,
      "Latitude" : -14.923649
    },
    {
      "Name" : "KANDULU",
      "Status" : "Functional",
      "Village" : "Kandulu",
      "District" : "Machinga",
      "Region" : "South",
      "FacilityType" : "Outreach",
      "ControllingAgency" : "MoH",
      "ContactName" : "Jimmy Mtukula",
      "Phone" : 881034529,
      "Email" : "N/A",
      "Cluster" : "Chapusa",
      "Longitude" : 35.601378,
      "Latitude" : -14.91397
    },
    {
      "Name" : "MKUNDI",
      "Status" : "Functional",
      "Village" : "Mkundi",
      "District" : "Machinga",
      "Region" : "South",
      "FacilityType" : "Outreach",
      "ControllingAgency" : "MoH",
      "ContactName" : "Robson Mveliwa",
      "Phone" : 881036301,
      "Email" : "N/A",
      "Cluster" : "Mbonechera",
      "Longitude" : 35.467182,
      "Latitude" : -14.909348
    },
    {
      "Name" : "KUNENEKUDE",
      "Status" : "Functional",
      "Village" : "Kunenekude",
      "District" : "Mwanza",
      "Region" : "South",
      "FacilityType" : "Health Centre",
      "ControllingAgency" : "MoH",
      "ContactName" : "Evason Khupawe",
      "Phone" : 881038377,
      "Email" : "N/A",
      "Cluster" : "Kunenekude",
      "Longitude" : 34.49141,
      "Latitude" : -15.464742
    },
    {
      "Name" : "NTOPA",
      "Status" : "Functional",
      "Village" : "Ntopa",
      "District" : "Machinga",
      "Region" : "South",
      "FacilityType" : "Outreach",
      "ControllingAgency" : "CHAM",
      "ContactName" : "Ignasio Sila",
      "Phone" : 881038744,
      "Email" : "N/A",
      "Cluster" : "Mpiri",
      "Longitude" : 35.629013,
      "Latitude" : -14.817306
    },
    {
      "Name" : "NTOPA",
      "Status" : "Functional",
      "Village" : "Ntopa",
      "District" : "Machinga",
      "Region" : "South",
      "FacilityType" : "Village Clinic",
      "ControllingAgency" : "MoH",
      "ContactName" : "Ignasio Sila",
      "Phone" : 881038744,
      "Email" : "N/A",
      "Cluster" : "Mpiri",
      "Longitude" : 35.629013,
      "Latitude" : -14.817306
    },
    {
      "Name" : "NKOLIMBO",
      "Status" : "Functional",
      "Village" : "Nkolimbo",
      "District" : "Nsanje",
      "Region" : "South",
      "FacilityType" : "Village Clinic",
      "ControllingAgency" : "MoH",
      "ContactName" : "Francis Thole",
      "Phone" : 881039553,
      "Email" : "N/A",
      "Cluster" : "Makhanga",
      "Longitude" : 35.154981,
      "Latitude" : -16.531139
    },
    {
      "Name" : "MULIRA I",
      "Status" : "Functional",
      "Village" : "Mulira",
      "District" : "Nsanje",
      "Region" : "South",
      "FacilityType" : "Outreach",
      "ControllingAgency" : "MoH",
      "ContactName" : "Nasibu Chipakuza",
      "Phone" : 881039568,
      "Email" : "N/A",
      "Cluster" : "Mbenje ",
      "Longitude" : 35.183566,
      "Latitude" : -17.005053
    },
    {
      "Name" : "MULIRA I",
      "Status" : "Functional",
      "Village" : "Mulira",
      "District" : "Nsanje",
      "Region" : "North ",
      "FacilityType" : "Village Clinic",
      "ControllingAgency" : "MoH",
      "ContactName" : "Nasibu Chipakuza",
      "Phone" : 881039568,
      "Email" : "N/A",
      "Cluster" : "Mbenje ",
      "Longitude" : 35.183566,
      "Latitude" : -17.005053
    }
  ]
